agency_id,ori,legacy_ori,agency_name,short_name,agency_type_id,agency_type_name,tribe_id,campus_id,city_id,city_name,state_id,state_abbr,primary_county_id,primary_county,primary_county_fips,agency_status,submitting_agency_id,submitting_sai,submitting_name,submitting_state_abbr,start_year,dormant_year,current_year,revised_rape_start,current_nibrs_start_year,population,population_group_code,population_group_desc,population_source_flag,suburban_area_flag,core_city_flag,months_reported,nibrs_months_reported,past_10_years_reported,covered_by_id,covered_by_ori,covered_by_name,staffing_year,total_officers,total_civilians,icpsr_zip,icpsr_lat,icpsr_lng
7016,KY099SP00,KY099SP00,State Police: Powell County,State Police: Powell County,4,State Police,,,,,21,KY,1104,Powell,21197,A,23369,KYUCR0001,Kentucky State Police Criminal Identification and Records Branch,KY,1971,2005,2016,2014,2005,0,8D,"Non-MSA counties under 10,000",L,N,N,0,0,0,7121,KYKSP0800,State Police: Morehead,,,,40351,37.800423,-83.819883
6560,KY0140100,KY0140100,Hardinsburg Police Department,Hardinsburg,1,City,,,3598,Hardinsburg,21,KY,1019,Breckinridge,21027,A,23369,KYUCR0001,Kentucky State Police Criminal Identification and Records Branch,KY,1970,,2016,2013,2016,2314,7,"Cities under 2,500",L,N,N,12,12,10,,,,2016,5,0,40143,37.778109,-86.432829
6837,KY0592200,KY0592200,Crescent Park Police Department,Crescent Park,1,City,,,3582,Fort Mitchell,21,KY,1064,Kenton,21117,A,23369,KYUCR0001,Kentucky State Police Criminal Identification and Records Branch,KY,1974,,2016,2014,2006,0,7,"Cities under 2,500",L,Y,N,0,0,0,6823,KY0590500,Kenton County Police Department,1976,3,0,41017,38.930477,-84.533492
6921,KY0780100,KY0780100,Lebanon Police Department,Lebanon,1,City,,,3627,Lebanon,21,KY,1080,Marion,21155,A,23369,KYUCR0001,Kentucky State Police Criminal Identification and Records Branch,KY,1960,,2016,2013,2016,5639,6,"Cities from 2,500 thru 9,999",L,N,N,12,12,10,,,,2016,15,9,40033,37.552604,-85.268959
6980,KY0920100,KY0920100,Hartford Police Department,Hartford,1,City,,,3601,Hartford,21,KY,1097,Ohio,21183,A,23369,KYUCR0001,Kentucky State Police Criminal Identification and Records Branch,KY,1970,,2016,2013,2016,2701,6,"Cities from 2,500 thru 9,999",L,N,N,12,12,10,,,,2014,6,0,42347,37.477859,-86.844871
6531,KY0080200,KY0080200,Florence Police Department,Florence,1,City,,,3581,Florence,21,KY,1013,Boone,21015,A,23369,KYUCR0001,Kentucky State Police Criminal Identification and Records Branch,KY,1960,,2016,2013,2016,32357,4,"Cities from 25,000 thru 49,999",L,Y,N,12,12,9,,,,2015,64,4,41042,38.974595,-84.731431
7107,KY1200000,KY1200000,Woodford County Sheriff's Office,Woodford,2,County,,,,,21,KY,1125,Woodford,21239,A,23369,KYUCR0001,Kentucky State Police Criminal Identification and Records Branch,KY,1960,,2016,2013,2016,0,9D,"MSA counties under 10,000",L,Y,N,12,12,9,,,,2016,8,3,40383,38.042821,-84.748002
7079,KY1130200,KY1130200,Sturgis Police Department,Sturgis,1,City,,,3721,Sturgis,21,KY,1118,Union,21225,A,23369,KYUCR0001,Kentucky State Police Criminal Identification and Records Branch,KY,1970,,2016,2013,2016,1927,7,"Cities under 2,500",L,N,N,12,12,10,,,,2013,4,0,42459,37.658029,-87.95165
6813,KY0570700,KY0570700,Jessamine County Constable District 4,Jessamine County Constable District 4,5,Other,,,,,21,KY,1062,Jessamine,21113,A,23369,KYUCR0001,Kentucky State Police Criminal Identification and Records Branch,KY,2007,,2016,,2015,0,9D,"MSA counties under 10,000",L,Y,N,0,0,0,6809,KY0570000,Jessamine,,,,40356,37.873291,-84.58396
6660,KY0350000,KY0350000,Fleming County Sheriff's Office,Fleming,2,County,,,,,21,KY,1040,Fleming,21069,A,23369,KYUCR0001,Kentucky State Police Criminal Identification and Records Branch,KY,1960,,2016,2013,2016,11858,8C,"Non-MSA counties from 10,000 thru 24,999",L,N,N,12,12,10,,,,2016,6,1,41041,38.368431,-83.706152
6839,KY0592600,KY0592600,Northern Kentucky Drug Strike Force,Northern Kentucky Drug Strike Force,5,Other,,,,,21,KY,1064,Kenton,21117,A,23369,KYUCR0001,Kentucky State Police Criminal Identification and Records Branch,KY,1992,,2016,2013,2016,0,7,"Cities under 2,500",L,Y,N,12,12,9,,,,2016,2,1,41017,38.930477,-84.533492
6569,KY0150500,KY0150500,Hillview Police Department,Hillview,1,City,,,3639,Louisville,21,KY,1020,Bullitt,21029,A,23369,KYUCR0001,Kentucky State Police Criminal Identification and Records Branch,KY,1984,,2016,2013,2016,8103,6,"Cities from 2,500 thru 9,999",L,Y,N,12,12,10,,,,2016,14,0,40229,37.969572,-85.703036
6645,KY031SP00,KY031SP00,State Police: Edmonson County,State Police: Edmonson County,4,State Police,,,,,21,KY,1036,Edmonson,21061,A,23369,KYUCR0001,Kentucky State Police Criminal Identification and Records Branch,KY,1971,2005,2016,2014,2005,0,9D,"MSA counties under 10,000",L,Y,N,0,0,0,7116,KYKSP0300,State Police: Bowling Green,,,,42102,37.227856,-86.217778
6745,KY0480700,KY0480700,Wallins Police Department,Wallins,1,City,,,3730,Wallins Creek,21,KY,1053,Harlan,21095,A,23369,KYUCR0001,Kentucky State Police Criminal Identification and Records Branch,KY,2005,,2016,2014,2009,151,7,"Cities under 2,500",L,N,N,0,12,0,6738,KY0480000,Harlan,2006,1,0,40873,36.859223,-83.221497
6700,KY0410400,KY0410400,Crittenden Police Department,Crittenden,1,City,,,3557,Crittenden,21,KY,1046,Grant,21081,A,23369,KYUCR0001,Kentucky State Police Criminal Identification and Records Branch,KY,1990,,2016,2014,2004,3874,6,"Cities from 2,500 thru 9,999",L,Y,N,0,12,0,6696,KY0410000,Grant,1999,2,0,41030,38.64921,-84.625946
6816,KY0580100,KY0580100,Paintsville Police Department,Paintsville,1,City,,,3679,Paintsville,21,KY,1063,Johnson,21115,A,23369,KYUCR0001,Kentucky State Police Criminal Identification and Records Branch,KY,1960,,2016,2013,2016,4263,6,"Cities from 2,500 thru 9,999",L,N,N,12,12,10,,,,2015,10,0,41240,37.84926,-82.830639
6828,KY0591000,KY0591000,Lakeside Park-Crestview Hills Police Department,Lakeside Park-Crestview Hills,1,City,,,3556,Crestview Hls,21,KY,1064,Kenton,21117,A,23369,KYUCR0001,Kentucky State Police Criminal Identification and Records Branch,KY,1970,,2016,2013,2016,6119,6,"Cities from 2,500 thru 9,999",L,Y,N,12,12,10,,,,2016,11,1,41017,38.930477,-84.533492
6868,KY0670100,KY0670100,Whitesburg Police Department,Whitesburg,1,City,,,3737,Whitesburg,21,KY,1072,Letcher,21133,A,23369,KYUCR0001,Kentucky State Police Criminal Identification and Records Branch,KY,1970,,2016,2013,2016,2001,7,"Cities under 2,500",L,N,N,12,12,9,,,,2015,6,2,41858,37.118503,-82.861175
6615,KY0240000,KY0240000,Christian County Sheriff's Office,Christian,2,County,,,,,21,KY,1029,Christian,21047,A,23369,KYUCR0001,Kentucky State Police Criminal Identification and Records Branch,KY,1960,,2016,2013,2016,33021,9B,"MSA counties from 25,000 thru 99,999",L,Y,N,12,12,10,,,,2014,32,4,42240,36.892059,-87.492986
6937,KY081SP00,KY081SP00,State Police: Mason County,State Police: Mason County,4,State Police,,,,,21,KY,1083,Mason,21161,A,23369,KYUCR0001,Kentucky State Police Criminal Identification and Records Branch,KY,1971,2005,2016,2014,2005,0,8D,"Non-MSA counties under 10,000",L,N,N,0,0,0,7121,KYKSP0800,State Police: Morehead,,,,40351,38.594068,-83.828052
7000,KY096SP00,KY096SP00,State Police: Pendleton County,State Police: Pendleton County,4,State Police,,,,,21,KY,1101,Pendleton,21191,A,23369,KYUCR0001,Kentucky State Police Criminal Identification and Records Branch,KY,1971,2005,2016,2014,2005,0,9D,"MSA counties under 10,000",L,Y,N,0,0,0,7119,KYKSP0600,State Police: Dry Ridge,,,,41035,38.696284,-84.351944
7111,KY120SP00,KY120SP00,State Police: Woodford County,State Police: Woodford County,4,State Police,,,,,21,KY,1125,Woodford,21239,A,23369,KYUCR0001,Kentucky State Police Criminal Identification and Records Branch,KY,1971,2005,2016,2014,2005,0,9D,"MSA counties under 10,000",L,Y,N,0,0,0,7125,KYKSP1200,State Police: Frankfort,,,,40601,38.042821,-84.748002
6727,KY0460200,KY0460200,Lewisport Police Department,Lewisport,1,City,,,3631,Lewisport,21,KY,1051,Hancock,21091,A,23369,KYUCR0001,Kentucky State Police Criminal Identification and Records Branch,KY,1971,,2016,2013,2016,1719,7,"Cities under 2,500",L,Y,N,12,12,8,,,,2009,2,0,42351,37.843325,-86.792761
6900,KY073SP00,KY073SP00,State Police: McCracken County,State Police: McCracken County,4,State Police,,,,,21,KY,1084,Mccracken,21145,A,23369,KYUCR0001,Kentucky State Police Criminal Identification and Records Branch,KY,1971,2005,2016,2014,2005,0,8D,"Non-MSA counties under 10,000",L,N,N,0,0,0,7114,KYKSP0100,State Police: Mayfield,,,,42051,37.053683,-88.712366
7072,KY1110100,KY1110100,Cadiz Police Department,Cadiz,1,City,,,3532,Cadiz,21,KY,1116,Trigg,21221,A,23369,KYUCR0001,Kentucky State Police Criminal Identification and Records Branch,KY,1970,,2016,2013,2016,2632,6,"Cities from 2,500 thru 9,999",L,Y,N,12,12,10,,,,2015,9,1,42211,36.807681,-87.858652
6691,KY039SP00,KY039SP00,State Police: Gallatin County,State Police: Gallatin County,4,State Police,,,,,21,KY,1044,Gallatin,21077,A,23369,KYUCR0001,Kentucky State Police Criminal Identification and Records Branch,KY,1971,2005,2016,2014,2005,0,9D,"MSA counties under 10,000",L,Y,N,0,0,0,7118,KYKSP0500,State Police: Campbellsburg,,,,40011,38.760107,-84.862151
6801,KY0564700,KY0564700,Jefferson Community and Technical College,Jefferson Community and Technical College,3,University or College,,282,,,21,KY,1061,Jefferson,21111,A,23369,KYUCR0001,Kentucky State Police Criminal Identification and Records Branch,KY,1976,,2016,2014,2016,0,7,"Cities under 2,500",L,Y,N,0,12,0,6778,KY0560000,Jefferson,1997,0,5,40202,38.189533,-85.657624
6670,KY036SP00,KY036SP00,State Police: Floyd County,State Police: Floyd County,4,State Police,,,,,21,KY,1041,Floyd,21071,A,23369,KYUCR0001,Kentucky State Police Criminal Identification and Records Branch,KY,1971,2005,2016,2014,2005,0,8D,"Non-MSA counties under 10,000",L,N,N,0,0,0,7122,KYKSP0900,State Police: Pikeville,,,,41502,37.558283,-82.740337
6753,KY050SP00,KY050SP00,State Police: Hart County,State Police: Hart County,4,State Police,,,,,21,KY,1055,Hart,21099,A,23369,KYUCR0001,Kentucky State Police Criminal Identification and Records Branch,KY,1971,2005,2016,2014,2005,0,8D,"Non-MSA counties under 10,000",L,N,N,0,0,0,7116,KYKSP0300,State Police: Bowling Green,,,,42102,37.313856,-85.881994
6812,KY0570300,KY0570300,Jessamine County Constable District 2,Jessamine County Constable District 2,5,Other,,,,,21,KY,1062,Jessamine,21113,A,23369,KYUCR0001,Kentucky State Police Criminal Identification and Records Branch,KY,1992,,2016,,2015,0,9D,"MSA counties under 10,000",L,Y,N,0,0,0,6809,KY0570000,Jessamine,1993,1,0,40390,37.873291,-84.58396
6666,KY0360300,KY0360300,Martin Police Department,Martin,1,City,,,3646,Martin,21,KY,1041,Floyd,21071,A,23369,KYUCR0001,Kentucky State Police Criminal Identification and Records Branch,KY,1970,,2016,2013,2016,604,7,"Cities under 2,500",L,N,N,12,12,5,,,,2014,3,4,41649,37.558283,-82.740337
6822,KY0590400,KY0590400,Fort Wright Police Department,Fort Wright,1,City,,,3584,Fort Wright,21,KY,1064,Kenton,21117,A,23369,KYUCR0001,Kentucky State Police Criminal Identification and Records Branch,KY,1970,,2016,2013,2016,5780,6,"Cities from 2,500 thru 9,999",L,Y,N,12,12,10,,,,2016,13,0,41011,38.930477,-84.533492
6626,KY025SP00,KY025SP00,State Police: Clark County,State Police: Clark County,4,State Police,,,,,21,KY,1030,Clark,21049,A,23369,KYUCR0001,Kentucky State Police Criminal Identification and Records Branch,KY,1971,2005,2016,2014,2005,0,9D,"MSA counties under 10,000",L,Y,N,0,0,0,7120,KYKSP0700,State Police: Richmond,,,,40475,37.970133,-84.144974
6845,KY0600200,KY0600200,Pippa Passes Police Department,Pippa Passes,1,City,,,3688,Pippa Passes,21,KY,1065,Knott,21119,A,23369,KYUCR0001,Kentucky State Police Criminal Identification and Records Branch,KY,1992,,2016,,2016,657,7,"Cities under 2,500",L,N,N,12,12,1,,,,2015,2,4,41844,37.354703,-82.949138
6698,KY0410200,KY0410200,Dry Ridge Police Department,Dry Ridge,1,City,,,3564,Dry Ridge,21,KY,1046,Grant,21081,A,23369,KYUCR0001,Kentucky State Police Criminal Identification and Records Branch,KY,1971,,2016,2013,2016,2221,7,"Cities under 2,500",L,Y,N,12,12,8,,,,2016,5,0,41035,38.64921,-84.625946
6580,KY0180000,KY0180000,Calloway County Sheriff's Office,Calloway,2,County,,,,,21,KY,1023,Calloway,21035,A,23369,KYUCR0001,Kentucky State Police Criminal Identification and Records Branch,KY,1960,,2016,2013,2016,19647,8C,"Non-MSA counties from 10,000 thru 24,999",L,N,N,12,12,10,,,,2015,14,15,42071,36.620978,-88.274086
6965,KY0890200,KY0890200,Central City Police Department,Central City,1,City,,,3544,Central City,21,KY,1094,Muhlenberg,21177,A,23369,KYUCR0001,Kentucky State Police Criminal Identification and Records Branch,KY,1960,,2016,2013,2016,5879,6,"Cities from 2,500 thru 9,999",L,N,N,12,12,10,,,,2016,12,0,42330,37.213816,-87.134092
6616,KY0240100,KY0240100,Hopkinsville Police Department,Hopkinsville,1,City,,,3609,Hopkinsville,21,KY,1029,Christian,21047,A,23369,KYUCR0001,Kentucky State Police Criminal Identification and Records Branch,KY,1960,,2016,2013,2016,32756,4,"Cities from 25,000 thru 49,999",L,Y,N,12,12,9,,,,2015,75,28,42240,36.892059,-87.492986
6602,KY0200100,KY0200100,Bardwell Police Department,Bardwell,1,City,,,3511,Bardwell,21,KY,1025,Carlisle,21039,A,23369,KYUCR0001,Kentucky State Police Criminal Identification and Records Branch,KY,1993,,2016,2013,2016,705,7,"Cities under 2,500",L,N,N,12,12,8,,,,2009,1,0,42023,36.857726,-88.975757
6554,KY0120200,KY0120200,Brooksville Police Department,Brooksville,1,City,,,3525,Brooksville,21,KY,1017,Bracken,21023,A,23369,KYUCR0001,Kentucky State Police Criminal Identification and Records Branch,KY,1970,,2016,,2016,643,7,"Cities under 2,500",L,Y,N,12,12,1,,,,2012,1,0,41004,38.677557,-84.10468
7006,KY0980000,KY0980000,Pike County Sheriff's Office,Pike,2,County,,,,,21,KY,1103,Pike,21195,A,23369,KYUCR0001,Kentucky State Police Criminal Identification and Records Branch,KY,1960,,2016,2013,2016,52494,8B,"Non-MSA counties from 25,000 thru 99,999",L,N,N,12,12,10,,,,2016,8,8,41502,37.482067,-82.402869
7078,KY1130100,KY1130100,Morganfield Police Department,Morganfield,1,City,,,3656,Morganfield,21,KY,1118,Union,21225,A,23369,KYUCR0001,Kentucky State Police Criminal Identification and Records Branch,KY,1960,,2016,2013,2016,3608,6,"Cities from 2,500 thru 9,999",L,N,N,12,12,9,,,,2015,8,9,42437,37.658029,-87.95165
6702,KY0420000,KY0420000,Graves County Sheriff's Office,Graves,2,County,,,,,21,KY,1047,Graves,21083,A,23369,KYUCR0001,Kentucky State Police Criminal Identification and Records Branch,KY,1960,,2016,2013,2016,26895,8B,"Non-MSA counties from 25,000 thru 99,999",L,N,N,12,12,10,,,,2016,16,3,42066,36.723344,-88.649897
6662,KY035SP00,KY035SP00,State Police: Fleming County,State Police: Fleming County,4,State Police,,,,,21,KY,1040,Fleming,21069,A,23369,KYUCR0001,Kentucky State Police Criminal Identification and Records Branch,KY,1971,2005,2016,2014,2005,0,8D,"Non-MSA counties under 10,000",L,N,N,0,0,0,7121,KYKSP0800,State Police: Morehead,,,,40351,38.368431,-83.706152
6623,KY0250000,KY0250000,Clark County Sheriff's Office,Clark,2,County,,,,,21,KY,1030,Clark,21049,A,23369,KYUCR0001,Kentucky State Police Criminal Identification and Records Branch,KY,1960,,2016,2013,2016,17294,9C,"MSA counties from 10,000 thru 24,999",L,Y,N,12,12,10,,,,2016,13,4,40391,37.970133,-84.144974
6920,KY0780000,KY0780000,Marion County Sheriff's Office,Marion,2,County,,,,,21,KY,1080,Marion,21155,A,23369,KYUCR0001,Kentucky State Police Criminal Identification and Records Branch,KY,1960,,2016,2013,2016,14099,8C,"Non-MSA counties from 10,000 thru 24,999",L,N,N,12,12,10,,,,2016,7,3,40033,37.552604,-85.268959
6823,KY0590500,KY0590500,Kenton County Police Department,Kenton County Police Department,2,County,,,,,21,KY,1064,Kenton,21117,A,23369,KYUCR0001,Kentucky State Police Criminal Identification and Records Branch,KY,1960,,2016,2013,2016,14886,9C,"MSA counties from 10,000 thru 24,999",L,Y,N,12,12,10,,,,2015,29,2,41051,38.930477,-84.533492
6940,KY0820200,KY0820200,Muldraugh Police Department,Muldraugh,1,City,,,3663,Muldraugh,21,KY,1087,Meade,21163,A,23369,KYUCR0001,Kentucky State Police Criminal Identification and Records Branch,KY,1970,,2016,2013,2016,1061,7,"Cities under 2,500",L,Y,N,12,12,7,,,,2015,3,0,40155,37.967476,-86.200863
6916,KY076SP00,KY076SP00,State Police: Madison County,State Police: Madison County,4,State Police,,,,,21,KY,1078,Madison,21151,A,23369,KYUCR0001,Kentucky State Police Criminal Identification and Records Branch,KY,1971,2005,2016,2014,2005,0,8D,"Non-MSA counties under 10,000",L,N,N,0,0,0,7120,KYKSP0700,State Police: Richmond,,,,40475,37.723528,-84.277008
6737,KY047SP00,KY047SP00,State Police: Hardin County,State Police: Hardin County,4,State Police,,,,,21,KY,1052,Hardin,21093,A,23369,KYUCR0001,Kentucky State Police Criminal Identification and Records Branch,KY,1971,2005,2016,2014,2005,0,9D,"MSA counties under 10,000",L,Y,N,0,0,0,7117,KYKSP0400,State Police: Elizabethtown,,,,42702,37.695836,-85.963183
6628,KY0260100,KY0260100,Manchester Police Department,Manchester,1,City,,,3644,Manchester,21,KY,1031,Clay,21051,A,23369,KYUCR0001,Kentucky State Police Criminal Identification and Records Branch,KY,1962,,2016,2013,2016,1397,7,"Cities under 2,500",L,N,N,12,12,10,,,,2015,13,0,40962,37.164466,-83.710762
6555,KY012SP00,KY012SP00,State Police: Bracken County,State Police: Bracken County,4,State Police,,,,,21,KY,1017,Bracken,21023,A,23369,KYUCR0001,Kentucky State Police Criminal Identification and Records Branch,KY,1971,2005,2016,2014,2005,0,9D,"MSA counties under 10,000",L,Y,N,0,0,0,7119,KYKSP0600,State Police: Dry Ridge,,,,41035,38.677557,-84.10468
6651,KY0330200,KY0330200,Ravenna Police Department,Ravenna,1,City,,,3697,Ravenna,21,KY,1038,Estill,21065,A,23369,KYUCR0001,Kentucky State Police Criminal Identification and Records Branch,KY,1971,,2016,2013,2016,592,7,"Cities under 2,500",L,N,N,12,12,6,,,,2015,2,0,40472,37.692449,-83.963983
6861,KY0650000,KY0650000,Lee County Sheriff's Office,Lee,2,County,,,,,21,KY,1070,Lee,21129,A,23369,KYUCR0001,Kentucky State Police Criminal Identification and Records Branch,KY,1960,,2016,2013,,6312,8D,"Non-MSA counties under 10,000",L,N,N,11,11,7,,,,2015,1,2,41311,37.607902,-83.719309
6571,KY0150700,KY0150700,Hunters Hollow Police Department,Hunters Hollow,1,City,,,3709,Shepherdsville,21,KY,1020,Bullitt,21029,A,23369,KYUCR0001,Kentucky State Police Criminal Identification and Records Branch,KY,1984,,2016,2014,2005,382,7,"Cities under 2,500",L,Y,N,0,0,0,6564,KY0150000,Bullitt,,,,40165,37.969572,-85.703036
7101,KY1180100,KY1180100,Corbin Police Department,Corbin,1,City,,,3552,Corbin,21,KY,1123,Whitley,21235,A,23369,KYUCR0001,Kentucky State Police Criminal Identification and Records Branch,KY,1960,,2016,2013,2016,7305,6,"Cities from 2,500 thru 9,999",L,N,N,12,12,10,,,,2015,20,8,40701,36.758021,-84.14455
6891,KY0720000,KY0720000,Lyon County Sheriff's Office,Lyon,2,County,,,,,21,KY,1077,Lyon,21143,A,23369,KYUCR0001,Kentucky State Police Criminal Identification and Records Branch,KY,1960,,2016,2013,2016,5826,8D,"Non-MSA counties under 10,000",L,N,N,12,12,10,,,,2015,4,1,42038,37.023976,-88.083391
6526,KY0070100,KY0070100,Middlesboro Police Department,Middlesboro,1,City,,,3652,Middlesboro,21,KY,1012,Bell,21013,A,23369,KYUCR0001,Kentucky State Police Criminal Identification and Records Branch,KY,1960,,2016,2013,2016,9792,6,"Cities from 2,500 thru 9,999",L,N,N,12,12,9,,,,2016,24,4,40965,36.72268,-83.681046
6664,KY0360100,KY0360100,Prestonsburg Police Department,Prestonsburg,1,City,,,3691,Prestonsburg,21,KY,1041,Floyd,21071,A,23369,KYUCR0001,Kentucky State Police Criminal Identification and Records Branch,KY,1960,,2016,2013,2016,3256,6,"Cities from 2,500 thru 9,999",L,N,N,12,12,10,,,,2015,13,0,41653,37.558283,-82.740337
7074,KY111SP00,KY111SP00,State Police: Trigg County,State Police: Trigg County,4,State Police,,,,,21,KY,1116,Trigg,21221,A,23369,KYUCR0001,Kentucky State Police Criminal Identification and Records Branch,KY,1971,2005,2016,2014,2005,0,9D,"MSA counties under 10,000",L,Y,N,0,0,0,7114,KYKSP0100,State Police: Mayfield,,,,42051,36.807681,-87.858652
6825,KY0590700,KY0590700,Ludlow Police Department,Ludlow,1,City,,,3641,Ludlow,21,KY,1064,Kenton,21117,A,23369,KYUCR0001,Kentucky State Police Criminal Identification and Records Branch,KY,1960,,2016,2013,2016,4545,6,"Cities from 2,500 thru 9,999",L,Y,N,12,12,9,,,,2015,11,1,41016,38.930477,-84.533492
6784,KY0560600,KY0560600,West Buechel Police Department,West Buechel,1,City,,,3639,Louisville,21,KY,1061,Jefferson,21111,A,23369,KYUCR0001,Kentucky State Police Criminal Identification and Records Branch,KY,1976,,2016,2013,2016,1272,7,"Cities under 2,500",L,Y,N,12,12,4,,,,2016,11,0,40218,38.189533,-85.657624
6573,KY015SP00,KY015SP00,State Police: Bullitt County,State Police: Bullitt County,4,State Police,,,,,21,KY,1020,Bullitt,21029,A,23369,KYUCR0001,Kentucky State Police Criminal Identification and Records Branch,KY,1971,2005,2016,2014,2005,0,9D,"MSA counties under 10,000",L,Y,N,0,0,0,7117,KYKSP0400,State Police: Elizabethtown,,,,42702,37.969572,-85.703036
7005,KY097SP00,KY097SP00,State Police: Perry County,State Police: Perry County,4,State Police,,,,,21,KY,1102,Perry,21193,A,23369,KYUCR0001,Kentucky State Police Criminal Identification and Records Branch,KY,1971,2005,2016,2014,2005,0,8D,"Non-MSA counties under 10,000",L,N,N,0,0,0,7126,KYKSP1300,State Police: Hazard,,,,41701,37.241282,-83.217772
6830,KY0591200,KY0591200,Villa Hills Police Department,Villa Hills,1,City,,,3728,Villa Hills,21,KY,1064,Kenton,21117,A,23369,KYUCR0001,Kentucky State Police Criminal Identification and Records Branch,KY,1974,,2016,2013,2016,7455,6,"Cities from 2,500 thru 9,999",L,Y,N,12,12,10,,,,2015,8,0,41017,38.930477,-84.533492
6804,KY0565500,KY0565500,Green Spring Police Department,Green Spring,1,City,,,3639,Louisville,21,KY,1061,Jefferson,21111,A,23369,KYUCR0001,Kentucky State Police Criminal Identification and Records Branch,KY,1990,,2016,2014,2004,741,7,"Cities under 2,500",L,Y,N,0,12,0,6807,KY0568000,Louisville Metro,1992,2,0,40241,38.189533,-85.657624
6649,KY0330000,KY0330000,Estill County Sheriff's Office,Estill,2,County,,,,,21,KY,1038,Estill,21065,A,23369,KYUCR0001,Kentucky State Police Criminal Identification and Records Branch,KY,1960,,2016,2013,2016,11356,8C,"Non-MSA counties from 10,000 thru 24,999",L,N,N,12,12,10,,,,2015,4,2,40336,37.692449,-83.963983
6912,KY0760100,KY0760100,Berea Police Department,Berea,1,City,,,3518,Berea,21,KY,1078,Madison,21151,A,23369,KYUCR0001,Kentucky State Police Criminal Identification and Records Branch,KY,1960,,2016,2013,2016,14894,5,"Cities from 10,000 thru 24,999",L,N,N,12,12,10,,,,2016,32,2,40403,37.723528,-84.277008
6947,KY084SP00,KY084SP00,State Police: Mercer County,State Police: Mercer County,4,State Police,,,,,21,KY,1089,Mercer,21167,A,23369,KYUCR0001,Kentucky State Police Criminal Identification and Records Branch,KY,1971,2005,2016,2014,2005,0,8D,"Non-MSA counties under 10,000",L,N,N,0,0,0,7120,KYKSP0700,State Police: Richmond,,,,40475,37.812085,-84.879694
6764,KY0530000,KY0530000,Hickman County Sheriff's Office,Hickman,2,County,,,,,21,KY,1058,Hickman,21105,A,23369,KYUCR0001,Kentucky State Police Criminal Identification and Records Branch,KY,1960,,2016,2013,,3354,8D,"Non-MSA counties under 10,000",L,N,N,11,11,5,,,,2015,2,1,42031,36.675916,-88.97202
6777,KY055SP00,KY055SP00,State Police: Jackson County,State Police: Jackson County,4,State Police,,,,,21,KY,1060,Jackson,21109,A,23369,KYUCR0001,Kentucky State Police Criminal Identification and Records Branch,KY,1971,2005,2016,2014,2005,0,8D,"Non-MSA counties under 10,000",L,N,N,0,0,0,7120,KYKSP0700,State Police: Richmond,,,,40475,37.40332,-84.020686
6811,KY0570200,KY0570200,Wilmore Police Department,Wilmore,1,City,,,3743,Wilmore,21,KY,1062,Jessamine,21113,A,23369,KYUCR0001,Kentucky State Police Criminal Identification and Records Branch,KY,1960,,2016,2013,2016,6179,6,"Cities from 2,500 thru 9,999",L,Y,N,12,12,10,,,,2015,8,1,40390,37.873291,-84.58396
7035,KY1030100,KY1030100,Morehead Police Department,Morehead,1,City,,,3655,Morehead,21,KY,1108,Rowan,21205,A,23369,KYUCR0001,Kentucky State Police Criminal Identification and Records Branch,KY,1960,,2016,2013,2016,7012,6,"Cities from 2,500 thru 9,999",L,N,N,12,12,9,,,,2015,20,9,40351,38.205852,-83.425949
6871,KY0670400,KY0670400,Fleming Police Department,Fleming,1,City,,,3666,Neon,21,KY,1072,Letcher,21133,A,23369,KYUCR0001,Kentucky State Police Criminal Identification and Records Branch,KY,1973,,2016,2014,2015,0,7,"Cities under 2,500",L,N,N,0,0,0,6870,KY0670300,Fleming-Neon,1993,2,0,41840,37.118503,-82.861175
6605,KY0210100,KY0210100,Carrollton Police Department,Carrollton,1,City,,,3540,Carrollton,21,KY,1026,Carroll,21041,A,23369,KYUCR0001,Kentucky State Police Criminal Identification and Records Branch,KY,1960,,2016,2013,2016,3930,6,"Cities from 2,500 thru 9,999",L,N,N,12,12,10,,,,2016,10,7,41008,38.668284,-85.124083
6853,KY0630000,KY0630000,Laurel County Sheriff's Office,Laurel,2,County,,,,,21,KY,1068,Laurel,21125,A,23369,KYUCR0001,Kentucky State Police Criminal Identification and Records Branch,KY,1960,,2016,2013,2016,52042,8B,"Non-MSA counties from 25,000 thru 99,999",L,N,N,12,12,10,,,,2016,35,24,40741,37.113268,-84.119395
6913,KY0760200,KY0760200,Richmond Police Department,Richmond,1,City,,,3698,Richmond,21,KY,1078,Madison,21151,A,23369,KYUCR0001,Kentucky State Police Criminal Identification and Records Branch,KY,1960,,2016,2013,2016,33943,4,"Cities from 25,000 thru 49,999",L,N,N,12,12,9,,,,2016,47,14,40476,37.723528,-84.277008
6922,KY0780200,KY0780200,Loretto Police Department,Loretto,1,City,,,3637,Loretto,21,KY,1080,Marion,21155,A,23369,KYUCR0001,Kentucky State Police Criminal Identification and Records Branch,KY,1978,,2016,2014,2005,718,7,"Cities under 2,500",L,N,N,0,12,0,6920,KY0780000,Marion,1994,11,6,40037,37.552604,-85.268959
6732,KY0470300,KY0470300,Vine Grove Police Department,Vine Grove,1,City,,,3729,Vine Grove,21,KY,1052,Hardin,21093,A,23369,KYUCR0001,Kentucky State Police Criminal Identification and Records Branch,KY,1970,,2016,2013,2016,5782,6,"Cities from 2,500 thru 9,999",L,Y,N,12,12,10,,,,2015,7,0,40175,37.695836,-85.963183
6789,KY0561600,KY0561600,Hollow Creek Police Department,Hollow Creek,1,City,,,3639,Louisville,21,KY,1061,Jefferson,21111,A,23369,KYUCR0001,Kentucky State Police Criminal Identification and Records Branch,KY,2007,,2016,,2015,812,7,"Cities under 2,500",L,Y,N,0,12,0,6807,KY0568000,Louisville Metro,2013,1,0,40228,38.189533,-85.657624
6519,KY0050300,KY0050300,Park City Police Department,Park City,1,City,,,3681,Park City,21,KY,1010,Barren,21009,A,23369,KYUCR0001,Kentucky State Police Criminal Identification and Records Branch,KY,1982,,2016,2014,2008,552,7,"Cities under 2,500",L,N,N,0,12,0,6516,KY0050000,Barren,2006,1,0,42160,36.963614,-85.92499
7081,KY113SP00,KY113SP00,State Police: Union County,State Police: Union County,4,State Police,,,,,21,KY,1118,Union,21225,A,23369,KYUCR0001,Kentucky State Police Criminal Identification and Records Branch,KY,1971,2005,2016,2014,2005,0,8D,"Non-MSA counties under 10,000",L,N,N,0,0,0,7129,KYKSP1600,State Police: Henderson,,,,42419,37.658029,-87.95165
6604,KY0210000,KY0210000,Carroll County Sheriff's Office,Carroll,2,County,,,,,21,KY,1026,Carroll,21041,A,23369,KYUCR0001,Kentucky State Police Criminal Identification and Records Branch,KY,1960,,2016,2013,2016,6876,8D,"Non-MSA counties under 10,000",L,N,N,12,12,7,,,,2015,7,2,41008,38.668284,-85.124083
6585,KY0190100,KY0190100,Bellevue Police Department,Bellevue,1,City,,,3515,Bellevue,21,KY,1024,Campbell,21037,A,23369,KYUCR0001,Kentucky State Police Criminal Identification and Records Branch,KY,1960,,2016,2013,2016,5909,6,"Cities from 2,500 thru 9,999",L,Y,N,12,12,9,,,,2015,10,1,41073,38.946981,-84.379583
6622,KY024SP00,KY024SP00,State Police: Christian County,State Police: Christian County,4,State Police,,,,,21,KY,1029,Christian,21047,A,23369,KYUCR0001,Kentucky State Police Criminal Identification and Records Branch,KY,1971,2005,2016,2014,2005,0,9D,"MSA counties under 10,000",L,Y,N,0,0,0,7115,KYKSP0200,State Police: Madisonville,,,,42442,36.892059,-87.492986
7067,KY1100100,KY1100100,Elkton Police Department,Elkton,1,City,,,3571,Elkton,21,KY,1115,Todd,21219,A,23369,KYUCR0001,Kentucky State Police Criminal Identification and Records Branch,KY,1970,,2016,2013,2016,2177,7,"Cities under 2,500",L,N,N,12,12,10,,,,2015,7,0,42220,36.840338,-87.183642
7041,KY104SP00,KY104SP00,State Police: Russell County,State Police: Russell County,4,State Police,,,,,21,KY,1109,Russell,21207,A,23369,KYUCR0001,Kentucky State Police Criminal Identification and Records Branch,KY,1971,2005,2016,2014,2005,0,8D,"Non-MSA counties under 10,000",L,N,N,0,0,0,7128,KYKSP1500,State Police: Columbia,,,,42728,36.989127,-85.058976
6882,KY0700200,KY0700200,Kentucky Dam,Kentucky Dam,5,Other,,,,,21,KY,1075,Livingston,21139,A,23369,KYUCR0001,Kentucky State Police Criminal Identification and Records Branch,KY,2007,,2016,2014,2014,0,7,"Cities under 2,500",L,N,N,0,0,0,6881,KY0700000,Livingston,2009,21,0,,,
6864,KY0660000,KY0660000,Leslie County Sheriff's Office,Leslie,2,County,,,,,21,KY,1071,Leslie,21131,A,23369,KYUCR0001,Kentucky State Police Criminal Identification and Records Branch,KY,1960,,2016,2013,2016,10461,8C,"Non-MSA counties from 10,000 thru 24,999",L,N,N,12,12,4,,,,2015,6,2,41749,37.087846,-83.388617
6766,KY053SP00,KY053SP00,State Police: Hickman County,State Police: Hickman County,4,State Police,,,,,21,KY,1058,Hickman,21105,A,23369,KYUCR0001,Kentucky State Police Criminal Identification and Records Branch,KY,1971,2005,2016,2014,2005,0,8D,"Non-MSA counties under 10,000",L,N,N,0,0,0,7114,KYKSP0100,State Police: Mayfield,,,,42051,36.675916,-88.97202
6650,KY0330100,KY0330100,Irvine Police Department,Irvine,1,City,,,3616,Irvine,21,KY,1038,Estill,21065,A,23369,KYUCR0001,Kentucky State Police Criminal Identification and Records Branch,KY,1960,,2016,2013,2016,2421,7,"Cities under 2,500",L,N,N,12,12,10,,,,2015,6,0,40336,37.692449,-83.963983
6720,KY0450500,KY0450500,Russell Police Department,Russell,1,City,,,3699,Russell,21,KY,1050,Greenup,21089,A,23369,KYUCR0001,Kentucky State Police Criminal Identification and Records Branch,KY,1971,,2016,2013,2016,3244,6,"Cities from 2,500 thru 9,999",L,Y,N,12,12,10,,,,2015,12,0,41169,38.563596,-82.933832
6786,KY0561200,KY0561200,Lynnview Police Department,Lynnview,1,City,,,3639,Louisville,21,KY,1061,Jefferson,21111,A,23369,KYUCR0001,Kentucky State Police Criminal Identification and Records Branch,KY,1990,,2016,2013,2016,943,7,"Cities under 2,500",L,Y,N,12,12,9,,,,2015,3,0,40213,38.189533,-85.657624
6863,KY065SP00,KY065SP00,State Police: Lee County,State Police: Lee County,4,State Police,,,,,21,KY,1070,Lee,21129,A,23369,KYUCR0001,Kentucky State Police Criminal Identification and Records Branch,KY,1971,2005,2016,2014,2005,0,8D,"Non-MSA counties under 10,000",L,N,N,0,0,0,7120,KYKSP0700,State Police: Richmond,,,,41311,37.607902,-83.719309
6715,KY0450000,KY0450000,Greenup County Sheriff's Office,Greenup,2,County,,,,,21,KY,1050,Greenup,21089,A,23369,KYUCR0001,Kentucky State Police Criminal Identification and Records Branch,KY,1960,,2016,2013,2016,18406,9C,"MSA counties from 10,000 thru 24,999",L,Y,N,12,12,10,,,,2016,15,3,41144,38.563596,-82.933832
6988,KY0930400,KY0930400,Oldham County Police Department,Oldham County Police Department,2,County,,,,,21,KY,1098,Oldham,21185,A,23369,KYUCR0001,Kentucky State Police Criminal Identification and Records Branch,KY,1978,,2016,2013,2016,53983,9B,"MSA counties from 25,000 thru 99,999",L,Y,N,12,12,10,,,,2012,29,2,40031,38.400046,-85.456059
6840,KY0592800,KY0592800,Dixie Police Authority Police Department,Dixie Police Authority,1,City,,,12035,Crescent Springs,21,KY,1064,Kenton,21117,A,23369,KYUCR0001,Kentucky State Police Criminal Identification and Records Branch,KY,1993,,2016,2014,2009,0,7,"Cities under 2,500",L,Y,N,0,12,0,6821,KY0590300,Erlanger,1996,9,0,41017,38.930477,-84.533492
6599,KY0191600,KY0191600,Crestview Police Department,Crestview,1,City,,,3503,Alexandria,21,KY,1024,Campbell,21037,A,23369,KYUCR0001,Kentucky State Police Criminal Identification and Records Branch,KY,1982,,2016,2014,2000,486,7,"Cities under 2,500",L,Y,N,0,12,0,6586,KY0190200,Campbell County Police Department,1994,22,11,41001,38.946981,-84.379583
6678,KY0371200,KY0371200,Fish and Wildlife Enforcement,Fish and Wildlife Enforcement,6,Other State Agency,,,,,21,KY,1042,Franklin,21073,A,23369,KYUCR0001,Kentucky State Police Criminal Identification and Records Branch,KY,1992,,2016,2013,2016,0,7,"Cities under 2,500",L,N,N,12,12,7,,,,2016,124,4,40601,38.234919,-84.868786
7075,KY1120000,KY1120000,Trimble County Sheriff's Office,Trimble,2,County,,,,,21,KY,1117,Trimble,21223,A,23369,KYUCR0001,Kentucky State Police Criminal Identification and Records Branch,KY,1960,,2016,2013,2016,8771,9D,"MSA counties under 10,000",L,Y,N,12,12,9,,,,2015,2,0,40006,38.618193,-85.355171
6772,KY0540500,KY0540500,Nortonville Police Department,Nortonville,1,City,,,3672,Nortonville,21,KY,1059,Hopkins,21107,A,23369,KYUCR0001,Kentucky State Police Criminal Identification and Records Branch,KY,1971,,2016,2014,2016,1191,7,"Cities under 2,500",L,N,N,0,12,8,6767,KY0540000,Hopkins,2010,1,0,42442,37.31107,-87.542196
6949,KY0850100,KY0850100,Edmonton Police Department,Edmonton,1,City,,,3568,Edmonton,21,KY,1090,Metcalfe,21169,A,23369,KYUCR0001,Kentucky State Police Criminal Identification and Records Branch,KY,1970,,2016,2013,2016,1576,7,"Cities under 2,500",L,N,N,12,12,10,,,,2016,6,0,42129,36.992647,-85.63369
6641,KY0300100,KY0300100,Owensboro Police Department,Owensboro,1,City,,,3675,Owensboro,21,KY,1035,Daviess,21059,A,23369,KYUCR0001,Kentucky State Police Criminal Identification and Records Branch,KY,1960,,2016,2013,2008,58608,3,"Cities from 50,000 thru 99,000",L,N,Y,12,12,9,,,,2016,90,46,42303,37.731671,-87.087139
6743,KY0480500,KY0480500,Evarts Police Department,Evarts,1,City,,,3576,Evarts,21,KY,1053,Harlan,21095,A,23369,KYUCR0001,Kentucky State Police Criminal Identification and Records Branch,KY,1971,,2016,2013,2016,929,7,"Cities under 2,500",L,N,N,12,12,10,,,,2015,3,0,40828,36.859223,-83.221497
6782,KY0560400,KY0560400,Shively Police Department,Shively,1,City,,,3710,Shively,21,KY,1061,Jefferson,21111,A,23369,KYUCR0001,Kentucky State Police Criminal Identification and Records Branch,KY,1960,,2016,2013,2016,15733,5,"Cities from 10,000 thru 24,999",L,Y,N,12,12,10,,,,2015,30,6,40216,38.189533,-85.657624
7038,KY1040000,KY1040000,Russell County Sheriff's Office,Russell,2,County,,,,,21,KY,1109,Russell,21207,A,23369,KYUCR0001,Kentucky State Police Criminal Identification and Records Branch,KY,1960,,2016,2013,2016,13460,8C,"Non-MSA counties from 10,000 thru 24,999",L,N,N,12,12,10,,,,2016,9,2,42629,36.989127,-85.058976
6668,KY0360500,KY0360500,Allen Police Department,Allen,1,City,,,3504,Allen,21,KY,1041,Floyd,21071,A,23369,KYUCR0001,Kentucky State Police Criminal Identification and Records Branch,KY,1971,,2016,,2016,186,7,"Cities under 2,500",L,N,N,12,12,1,,,,2015,1,1,41601,37.558283,-82.740337
6609,KY0220200,KY0220200,Olive Hill Police Department,Olive Hill,1,City,,,3674,Olive Hill,21,KY,1027,Carter,21043,A,23369,KYUCR0001,Kentucky State Police Criminal Identification and Records Branch,KY,1970,,2016,2013,2016,1603,7,"Cities under 2,500",L,N,N,12,12,10,,,,2015,7,0,41164,38.309555,-83.048821
6716,KY0450100,KY0450100,Flatwoods Police Department,Flatwoods,1,City,,,3579,Flatwoods,21,KY,1050,Greenup,21089,A,23369,KYUCR0001,Kentucky State Police Criminal Identification and Records Branch,KY,1960,,2016,2013,2016,7380,6,"Cities from 2,500 thru 9,999",L,Y,N,12,12,10,,,,2015,11,0,41139,38.563596,-82.933832
7069,KY1100400,KY1100400,Trenton Police Department,Trenton,1,City,,,3724,Trenton,21,KY,1115,Todd,21219,A,23369,KYUCR0001,Kentucky State Police Criminal Identification and Records Branch,KY,1993,,2016,2013,2016,386,7,"Cities under 2,500",L,N,N,12,12,7,,,,2003,1,0,42286,36.840338,-87.183642
6918,KY0770100,KY0770100,Salyersville Police Department,Salyersville,1,City,,,3704,Salyersville,21,KY,1079,Magoffin,21153,A,23369,KYUCR0001,Kentucky State Police Criminal Identification and Records Branch,KY,1973,,2016,2013,2016,1817,7,"Cities under 2,500",L,N,N,12,12,7,,,,2015,4,0,41465,37.698953,-83.069716
6821,KY0590300,KY0590300,Erlanger Police Department,Erlanger,1,City,,,3574,Erlanger,21,KY,1064,Kenton,21117,A,23369,KYUCR0001,Kentucky State Police Criminal Identification and Records Branch,KY,1960,,2016,2013,2016,22774,5,"Cities from 10,000 thru 24,999",L,Y,N,12,12,10,,,,2016,39,1,41018,38.930477,-84.533492
6634,KY0280000,KY0280000,Crittenden County Sheriff's Office,Crittenden,2,County,,,,,21,KY,1033,Crittenden,21055,A,23369,KYUCR0001,Kentucky State Police Criminal Identification and Records Branch,KY,1960,,2016,2013,2016,6199,8D,"Non-MSA counties under 10,000",L,N,N,12,12,10,,,,2015,4,1,42064,37.358149,-88.10501
6781,KY0560300,KY0560300,St. Matthews Police Department,St. Matthews,1,City,,,3703,Saint Matthews,21,KY,1061,Jefferson,21111,A,23369,KYUCR0001,Kentucky State Police Criminal Identification and Records Branch,KY,1960,,2016,2013,2016,18016,5,"Cities from 10,000 thru 24,999",L,Y,N,12,12,10,,,,2015,33,6,40207,38.189533,-85.657624
6551,KY011SP00,KY011SP00,State Police: Boyle County,State Police: Boyle County,4,State Police,,,,,21,KY,1016,Boyle,21021,A,23369,KYUCR0001,Kentucky State Police Criminal Identification and Records Branch,KY,1971,2005,2016,2014,2005,0,8D,"Non-MSA counties under 10,000",L,N,N,0,0,0,7120,KYKSP0700,State Police: Richmond,,,,40475,37.618104,-84.868352
6897,KY0730200,KY0730200,McCracken County Police Department,McCracken County Police Department,2,County,,,,,21,KY,1084,Mccracken,21145,A,23369,KYUCR0001,Kentucky State Police Criminal Identification and Records Branch,KY,1976,,2016,2014,2006,0,8D,"Non-MSA counties under 10,000",L,N,N,0,0,0,6895,KY0730000,McCracken,2002,1,1,42001,37.053683,-88.712366
6851,KY0620100,KY0620100,Hodgenville Police Department,Hodgenville,1,City,,,3608,Hodgenville,21,KY,1067,Larue,21123,A,23369,KYUCR0001,Kentucky State Police Criminal Identification and Records Branch,KY,1970,,2016,2013,2016,3242,6,"Cities from 2,500 thru 9,999",L,Y,N,12,12,10,,,,2016,7,0,42748,37.544458,-85.696812
6842,KY059SP00,KY059SP00,State Police: Kenton County,State Police: Kenton County,4,State Police,,,,,21,KY,1064,Kenton,21117,A,23369,KYUCR0001,Kentucky State Police Criminal Identification and Records Branch,KY,1971,2005,2016,2014,2005,0,9D,"MSA counties under 10,000",L,Y,N,0,0,0,7119,KYKSP0600,State Police: Dry Ridge,,,,41035,38.930477,-84.533492
6852,KY062SP00,KY062SP00,State Police: Larue County,State Police: Larue County,4,State Police,,,,,21,KY,1067,Larue,21123,A,23369,KYUCR0001,Kentucky State Police Criminal Identification and Records Branch,KY,1971,2005,2016,2014,2005,0,9D,"MSA counties under 10,000",L,Y,N,0,0,0,7117,KYKSP0400,State Police: Elizabethtown,,,,42702,37.544458,-85.696812
6948,KY0850000,KY0850000,Metcalfe County Sheriff's Office,Metcalfe,2,County,,,,,21,KY,1090,Metcalfe,21169,A,23369,KYUCR0001,Kentucky State Police Criminal Identification and Records Branch,KY,1960,,2016,2013,2016,8371,8D,"Non-MSA counties under 10,000",L,N,N,12,12,10,,,,2016,10,3,42129,36.992647,-85.63369
6793,KY0562000,KY0562000,Plantation Police Department,Plantation,1,City,,,3639,Louisville,21,KY,1061,Jefferson,21111,A,23369,KYUCR0001,Kentucky State Police Criminal Identification and Records Branch,KY,1992,,2016,2014,2004,861,7,"Cities under 2,500",L,Y,N,0,12,0,6807,KY0568000,Louisville Metro,1994,1,0,40222,38.189533,-85.657624
6711,KY043SP00,KY043SP00,State Police: Grayson County,State Police: Grayson County,4,State Police,,,,,21,KY,1048,Grayson,21085,A,23369,KYUCR0001,Kentucky State Police Criminal Identification and Records Branch,KY,1971,2005,2016,2014,2005,0,8D,"Non-MSA counties under 10,000",L,N,N,0,0,0,7117,KYKSP0400,State Police: Elizabethtown,,,,42702,37.458577,-86.344011
6806,KY0566900,KY0566900,Louisville Regional Airport Authority,Louisville Regional Airport Authority,5,Other,,,,,21,KY,1061,Jefferson,21111,A,23369,KYUCR0001,Kentucky State Police Criminal Identification and Records Branch,KY,2005,,2016,2013,2016,0,7,"Cities under 2,500",L,Y,N,12,12,10,,,,2016,40,6,40209,38.189533,-85.657624
6831,KY0591300,KY0591300,Fort Mitchell Police Department,Fort Mitchell,1,City,,,3554,Covington,21,KY,1064,Kenton,21117,A,23369,KYUCR0001,Kentucky State Police Criminal Identification and Records Branch,KY,1970,,2016,2013,2016,8292,6,"Cities from 2,500 thru 9,999",L,Y,N,12,12,9,,,,2015,14,0,41   ,38.930477,-84.533492
7024,KY1001200,KY1001200,Unlawful Narcotics Investigation Treatment and Education,Unlawful Narcotics Investigation Treatment and Education,6,Other State Agency,,,,,21,KY,1105,Pulaski,21199,A,23369,KYUCR0001,Kentucky State Police Criminal Identification and Records Branch,KY,2005,,2016,2013,2016,0,7,"Cities under 2,500",L,N,N,12,12,10,,,,2013,14,2,42501,37.108312,-84.579986
6763,KY052SP00,KY052SP00,State Police: Henry County,State Police: Henry County,4,State Police,,,,,21,KY,1057,Henry,21103,A,23369,KYUCR0001,Kentucky State Police Criminal Identification and Records Branch,KY,1971,2005,2016,2014,2005,0,9D,"MSA counties under 10,000",L,Y,N,0,0,0,7118,KYKSP0500,State Police: Campbellsburg,,,,40011,38.451561,-85.120079
6676,KY0370800,KY0370800,Forestry Enforcement,Forestry Enforcement,6,Other State Agency,,,,,21,KY,1042,Franklin,21073,A,23369,KYUCR0001,Kentucky State Police Criminal Identification and Records Branch,KY,1992,,2016,,2015,0,7,"Cities under 2,500",L,N,N,0,12,0,6671,KY0370000,Franklin,2010,132,14,40601,38.234919,-84.868786
6509,KY0030200,KY0030200,Anderson County Police Department,Anderson County Police Department,2,County,,,3626,Lawrenceburg,21,KY,1008,Anderson,21005,A,23369,KYUCR0001,Kentucky State Police Criminal Identification and Records Branch,KY,1981,,2016,2014,2005,0,8D,"Non-MSA counties under 10,000",L,N,N,0,12,0,6507,KY0030000,Anderson,2004,2,0,40342,38.005396,-84.986417
6610,KY0220300,KY0220300,Carter County Police Department,Carter County Police Department,2,County,,,3593,Grayson,21,KY,1027,Carter,21043,A,23369,KYUCR0001,Kentucky State Police Criminal Identification and Records Branch,KY,1992,,2016,2014,2004,0,8D,"Non-MSA counties under 10,000",L,N,N,0,12,0,6607,KY0220000,Carter,1994,9,0,41143,38.309555,-83.048821
6847,KY0610000,KY0610000,Knox County Sheriff's Office,Knox,2,County,,,,,21,KY,1066,Knox,21121,A,23369,KYUCR0001,Kentucky State Police Criminal Identification and Records Branch,KY,1960,,2016,2013,2016,26808,8B,"Non-MSA counties from 25,000 thru 99,999",L,N,N,12,12,10,,,,2015,9,5,40906,36.887476,-83.85563
6926,KY0790100,KY0790100,Benton Police Department,Benton,1,City,,,3517,Benton,21,KY,1081,Marshall,21157,A,23369,KYUCR0001,Kentucky State Police Criminal Identification and Records Branch,KY,1960,,2016,2013,2016,4309,6,"Cities from 2,500 thru 9,999",L,N,N,12,12,9,,,,2016,8,0,42025,36.882017,-88.332752
6735,KY0470800,KY0470800,Hardin County Constable District 5,Hardin County Constable District 5,5,Other,,,,,21,KY,1052,Hardin,21093,A,23369,KYUCR0001,Kentucky State Police Criminal Identification and Records Branch,KY,1992,,2016,,2016,0,9D,"MSA counties under 10,000",L,Y,N,12,12,1,,,,1993,1,0,40175,37.695836,-85.963183
6723,KY0451000,KY0451000,Bellefonte Police Department,Bellefonte,1,City,,,3506,Ashland,21,KY,1050,Greenup,21089,A,23369,KYUCR0001,Kentucky State Police Criminal Identification and Records Branch,KY,1992,,2016,2014,2016,867,7,"Cities under 2,500",L,Y,N,12,12,6,,,,2014,3,0,41101,38.563596,-82.933832
6607,KY0220000,KY0220000,Carter County Sheriff's Office,Carter,2,County,,,,,21,KY,1027,Carter,21043,A,23369,KYUCR0001,Kentucky State Police Criminal Identification and Records Branch,KY,1960,,2016,2013,2016,21370,8C,"Non-MSA counties from 10,000 thru 24,999",L,N,N,12,12,10,,,,2015,7,3,41143,38.309555,-83.048821
6528,KY007SP00,KY007SP00,State Police: Bell County,State Police: Bell County,4,State Police,,,,,21,KY,1012,Bell,21013,A,23369,KYUCR0001,Kentucky State Police Criminal Identification and Records Branch,KY,1971,2005,2016,2014,2005,0,8D,"Non-MSA counties under 10,000",L,N,N,0,0,0,7123,KYKSP1000,State Police: Harlan,,,,40831,36.72268,-83.681046
6974,KY090SP00,KY090SP00,State Police: Nelson County,State Police: Nelson County,4,State Police,,,,,21,KY,1095,Nelson,21179,A,23369,KYUCR0001,Kentucky State Police Criminal Identification and Records Branch,KY,1971,2005,2016,2014,2005,0,8D,"Non-MSA counties under 10,000",L,N,N,0,0,0,7117,KYKSP0400,State Police: Elizabethtown,,,,42702,37.803188,-85.465955
6924,KY078SP00,KY078SP00,State Police: Marion County,State Police: Marion County,4,State Police,,,,,21,KY,1080,Marion,21155,A,23369,KYUCR0001,Kentucky State Police Criminal Identification and Records Branch,KY,1971,2005,2016,2014,2005,0,8D,"Non-MSA counties under 10,000",L,N,N,0,0,0,7128,KYKSP1500,State Police: Columbia,,,,42728,37.552604,-85.268959
7076,KY112SP00,KY112SP00,State Police: Trimble County,State Police: Trimble County,4,State Police,,,,,21,KY,1117,Trimble,21223,A,23369,KYUCR0001,Kentucky State Police Criminal Identification and Records Branch,KY,1971,2005,2016,2014,2005,0,9D,"MSA counties under 10,000",L,Y,N,0,0,0,7118,KYKSP0500,State Police: Campbellsburg,,,,40011,38.618193,-85.355171
6547,KY0110000,KY0110000,Boyle County Sheriff's Office,Boyle,2,County,,,,,21,KY,1016,Boyle,21021,A,23369,KYUCR0001,Kentucky State Police Criminal Identification and Records Branch,KY,1960,,2016,2013,2016,10254,8C,"Non-MSA counties from 10,000 thru 24,999",L,N,N,12,12,10,,,,2015,11,1,40422,37.618104,-84.868352
6614,KY023SP00,KY023SP00,State Police: Casey County,State Police: Casey County,4,State Police,,,,,21,KY,1028,Casey,21045,A,23369,KYUCR0001,Kentucky State Police Criminal Identification and Records Branch,KY,1971,2005,2016,2014,2005,0,8D,"Non-MSA counties under 10,000",L,N,N,0,0,0,7128,KYKSP1500,State Police: Columbia,,,,42728,37.321962,-84.92822
6522,KY0060000,KY0060000,Bath County Sheriff's Office,Bath,2,County,,,,,21,KY,1011,Bath,21011,A,23369,KYUCR0001,Kentucky State Police Criminal Identification and Records Branch,KY,1960,,2016,2013,2016,10745,8C,"Non-MSA counties from 10,000 thru 24,999",L,N,N,12,12,4,,,,2016,5,2,40360,38.152249,-83.737641
6613,KY0230100,KY0230100,Liberty Police Department,Liberty,1,City,,,3633,Liberty,21,KY,1028,Casey,21045,A,23369,KYUCR0001,Kentucky State Police Criminal Identification and Records Branch,KY,1970,,2016,2013,2016,2174,7,"Cities under 2,500",L,N,N,12,12,9,,,,2014,4,0,42539,37.321962,-84.92822
6880,KY069SP00,KY069SP00,State Police: Lincoln County,State Police: Lincoln County,4,State Police,,,,,21,KY,1074,Lincoln,21137,A,23369,KYUCR0001,Kentucky State Police Criminal Identification and Records Branch,KY,1971,2005,2016,2014,2005,0,8D,"Non-MSA counties under 10,000",L,N,N,0,0,0,7120,KYKSP0700,State Police: Richmond,,,,40475,37.457174,-84.658335
6817,KY058SP00,KY058SP00,State Police: Johnson County,State Police: Johnson County,4,State Police,,,,,21,KY,1063,Johnson,21115,A,23369,KYUCR0001,Kentucky State Police Criminal Identification and Records Branch,KY,1971,2005,2016,2014,2005,0,8D,"Non-MSA counties under 10,000",L,N,N,0,0,0,7122,KYKSP0900,State Police: Pikeville,,,,41502,37.84926,-82.830639
6838,KY0592300,KY0592300,Latonia Lakes Police Department,Latonia Lakes,1,City,,,3582,Fort Mitchell,21,KY,1064,Kenton,21117,A,23369,KYUCR0001,Kentucky State Police Criminal Identification and Records Branch,KY,1979,,2016,2014,2006,0,7,"Cities under 2,500",L,Y,N,0,0,0,6823,KY0590500,Kenton County Police Department,1979,2,0,41015,38.930477,-84.533492
6532,KY0080300,KY0080300,Walton Police Department,Walton,1,City,,,3731,Walton,21,KY,1013,Boone,21015,A,23369,KYUCR0001,Kentucky State Police Criminal Identification and Records Branch,KY,1971,,2016,2014,2009,3925,6,"Cities from 2,500 thru 9,999",L,Y,N,0,12,0,6529,KY0080000,Boone,2000,3,0,41094,38.974595,-84.731431
6903,KY0740200,KY0740200,McCreary County Police Department,McCreary County Police Department,2,County,,,3738,Whitley City,21,KY,1085,Mccreary,21147,A,23369,KYUCR0001,Kentucky State Police Criminal Identification and Records Branch,KY,1977,,2016,2014,2005,0,8D,"Non-MSA counties under 10,000",L,N,N,0,12,0,6901,KY0740000,McCreary,1996,1,0,42653,36.731136,-84.491052
6689,KY0390300,KY0390300,Gallatin County Police Department,Gallatin County Police Department,2,County,,,,,21,KY,1044,Gallatin,21077,A,23369,KYUCR0001,Kentucky State Police Criminal Identification and Records Branch,KY,2005,,2016,,2015,0,9D,"MSA counties under 10,000",L,Y,N,0,12,0,6687,KY0390000,Gallatin,2010,1,0,41095,38.760107,-84.862151
6542,KY0100200,KY0100200,Catlettsburg Police Department,Catlettsburg,1,City,,,3541,Catlettsburg,21,KY,1015,Boyd,21019,A,23369,KYUCR0001,Kentucky State Police Criminal Identification and Records Branch,KY,1960,,2016,2013,2016,1818,7,"Cities under 2,500",L,Y,N,12,12,9,,,,2016,8,0,41129,38.360004,-82.681406
6504,KY0020000,KY0020000,Allen County Sheriff's Office,Allen,2,County,,,,,21,KY,1007,Allen,21003,A,23369,KYUCR0001,Kentucky State Police Criminal Identification and Records Branch,KY,1960,,2016,2013,2016,16075,9C,"MSA counties from 10,000 thru 24,999",L,Y,N,12,12,10,,,,2016,16,2,42164,36.75077,-86.192458
7001,KY0970000,KY0970000,Perry County Sheriff's Office,Perry,2,County,,,,,21,KY,1102,Perry,21193,A,23369,KYUCR0001,Kentucky State Police Criminal Identification and Records Branch,KY,1960,,2016,2013,2016,21990,8C,"Non-MSA counties from 10,000 thru 24,999",L,N,N,12,12,9,,,,2015,10,3,41702,37.241282,-83.217772
6873,KY0680000,KY0680000,Lewis County Sheriff's Office,Lewis,2,County,,,,,21,KY,1073,Lewis,21135,A,23369,KYUCR0001,Kentucky State Police Criminal Identification and Records Branch,KY,1960,,2016,2013,2016,12405,8C,"Non-MSA counties from 10,000 thru 24,999",L,N,N,12,12,10,,,,2016,5,2,41179,38.532054,-83.37329
6679,KY0371400,KY0371400,Alcohol Beverage Control Enforcement Division,Alcohol Beverage Control Enforcement Division,6,Other State Agency,,,,,21,KY,1042,Franklin,21073,A,23369,KYUCR0001,Kentucky State Police Criminal Identification and Records Branch,KY,1992,,2016,2013,2016,0,7,"Cities under 2,500",L,N,N,12,12,6,,,,2016,35,35,40601,38.234919,-84.868786
6682,KY037SP00,KY037SP00,State Police: Franklin County,State Police: Franklin County,4,State Police,,,,,21,KY,1042,Franklin,21073,A,23369,KYUCR0001,Kentucky State Police Criminal Identification and Records Branch,KY,1971,2005,2016,2014,2005,0,8D,"Non-MSA counties under 10,000",L,N,N,0,0,0,7125,KYKSP1200,State Police: Frankfort,,,,40601,38.234919,-84.868786
6930,KY0800000,KY0800000,Martin County Sheriff's Office,Martin,2,County,,,,,21,KY,1082,Martin,21159,A,23369,KYUCR0001,Kentucky State Police Criminal Identification and Records Branch,KY,1960,,2016,2013,2016,11746,8C,"Non-MSA counties from 10,000 thru 24,999",L,N,N,12,12,10,,,,2015,9,0,41224,37.796774,-82.506623
6953,KY0860200,KY0860200,Gamaliel Police Department,Gamaliel,1,City,,,3589,Gamaliel,21,KY,1091,Monroe,21171,A,23369,KYUCR0001,Kentucky State Police Criminal Identification and Records Branch,KY,1973,,2016,2013,2016,365,7,"Cities under 2,500",L,N,N,12,12,7,,,,2014,1,0,42140,36.714077,-85.713508
6797,KY0563800,KY0563800,Northfield Police Department,Northfield,1,City,,,3639,Louisville,21,KY,1061,Jefferson,21111,A,23369,KYUCR0001,Kentucky State Police Criminal Identification and Records Branch,KY,1993,,2016,2013,2016,1051,7,"Cities under 2,500",L,Y,N,12,12,6,,,,1996,1,0,40425,38.189533,-85.657624
6894,KY072SP00,KY072SP00,State Police: Lyon County,State Police: Lyon County,4,State Police,,,,,21,KY,1077,Lyon,21143,A,23369,KYUCR0001,Kentucky State Police Criminal Identification and Records Branch,KY,1971,2005,2016,2014,2005,0,8D,"Non-MSA counties under 10,000",L,N,N,0,0,0,7114,KYKSP0100,State Police: Mayfield,,,,42051,37.023976,-88.083391
6672,KY0370100,KY0370100,Frankfort Police Department,Frankfort,1,City,,,3586,Frankfort,21,KY,1042,Franklin,21073,A,23369,KYUCR0001,Kentucky State Police Criminal Identification and Records Branch,KY,1960,,2016,2013,2011,27603,4,"Cities from 25,000 thru 49,999",L,N,N,12,12,9,,,,2016,56,3,40602,38.234919,-84.868786
6606,KY021SP00,KY021SP00,State Police: Carroll County,State Police: Carroll County,4,State Police,,,,,21,KY,1026,Carroll,21041,A,23369,KYUCR0001,Kentucky State Police Criminal Identification and Records Branch,KY,1971,2005,2016,2014,2005,0,8D,"Non-MSA counties under 10,000",L,N,N,0,0,0,7118,KYKSP0500,State Police: Campbellsburg,,,,40011,38.668284,-85.124083
6537,KY0090200,KY0090200,Millersburg Police Department,Millersburg,1,City,,,3653,Millersburg,21,KY,1014,Bourbon,21017,A,23369,KYUCR0001,Kentucky State Police Criminal Identification and Records Branch,KY,1979,,2016,2014,2016,790,7,"Cities under 2,500",L,Y,N,12,12,5,,,,2015,1,0,40348,38.202562,-84.20986
6654,KY0340200,KY0340200,Lexington Police Department,Lexington,1,City,,,3632,Lexington,21,KY,1039,Fayette,21067,A,23369,KYUCR0001,Kentucky State Police Criminal Identification and Records Branch,KY,1960,,2016,2013,2011,314077,1C,"Cities from 250,000 thru 499,999",L,N,Y,12,12,10,,,,2015,506,75,40507,38.040149,-84.458421
7029,KY1020000,KY1020000,Rockcastle County Sheriff's Office,Rockcastle,2,County,,,,,21,KY,1107,Rockcastle,21203,A,23369,KYUCR0001,Kentucky State Police Criminal Identification and Records Branch,KY,1960,,2016,2013,2016,13080,8C,"Non-MSA counties from 10,000 thru 24,999",L,N,N,12,12,10,,,,2015,5,1,40456,37.36105,-84.314368
7050,KY105SP00,KY105SP00,State Police: Scott County,State Police: Scott County,4,State Police,,,,,21,KY,1110,Scott,21209,A,23369,KYUCR0001,Kentucky State Police Criminal Identification and Records Branch,KY,1971,2005,2016,2014,2005,0,9D,"MSA counties under 10,000",L,Y,N,0,0,0,7125,KYKSP1200,State Police: Frankfort,,,,40601,38.289882,-84.579376
6843,KY0600000,KY0600000,Knott County Sheriff's Office,Knott,2,County,,,,,21,KY,1065,Knott,21119,A,23369,KYUCR0001,Kentucky State Police Criminal Identification and Records Branch,KY,1960,,2016,2013,2016,15102,8C,"Non-MSA counties from 10,000 thru 24,999",L,N,N,12,12,10,,,,2016,6,3,41822,37.354703,-82.949138
7093,KY1160100,KY1160100,Monticello Police Department,Monticello,1,City,,,3654,Monticello,21,KY,1121,Wayne,21231,A,23369,KYUCR0001,Kentucky State Police Criminal Identification and Records Branch,KY,1960,,2016,2013,2016,6072,6,"Cities from 2,500 thru 9,999",L,N,N,12,12,10,,,,2016,11,1,42633,36.802011,-84.83044
6618,KY0240300,KY0240300,Pembroke Police Department,Pembroke,1,City,,,3683,Pembroke,21,KY,1029,Christian,21047,A,23369,KYUCR0001,Kentucky State Police Criminal Identification and Records Branch,KY,1970,,2016,2013,,895,7,"Cities under 2,500",L,Y,N,11,11,3,,,,2014,1,0,42266,36.892059,-87.492986
6663,KY0360000,KY0360000,Floyd County Sheriff's Office,Floyd,2,County,,,,,21,KY,1041,Floyd,21071,A,23369,KYUCR0001,Kentucky State Police Criminal Identification and Records Branch,KY,1960,,2016,2013,2016,32697,8B,"Non-MSA counties from 25,000 thru 99,999",L,N,N,12,12,10,,,,2015,16,3,41653,37.558283,-82.740337
6656,KY0340400,KY0340400,Fayette County Schools,Fayette County Schools,5,Other,,,,,21,KY,1039,Fayette,21067,A,23369,KYUCR0001,Kentucky State Police Criminal Identification and Records Branch,KY,1973,,2016,2013,2016,0,9D,"MSA counties under 10,000",L,Y,N,12,12,8,,,,2015,26,4,40502,38.040149,-84.458421
6862,KY0650100,KY0650100,Beattyville Police Department,Beattyville,1,City,,,3513,Beattyville,21,KY,1070,Lee,21129,A,23369,KYUCR0001,Kentucky State Police Criminal Identification and Records Branch,KY,1970,,2016,2013,2016,1245,7,"Cities under 2,500",L,N,N,12,12,10,,,,2015,5,0,41131,37.607902,-83.719309
6952,KY0860100,KY0860100,Tompkinsville Police Department,Tompkinsville,1,City,,,3723,Tompkinsville,21,KY,1091,Monroe,21171,A,23369,KYUCR0001,Kentucky State Police Criminal Identification and Records Branch,KY,1970,,2016,2013,2016,2284,7,"Cities under 2,500",L,N,N,12,12,10,,,,2016,10,3,42167,36.714077,-85.713508
7032,KY1020300,KY1020300,Brodhead Police Department,Brodhead,1,City,,,3524,Brodhead,21,KY,1107,Rockcastle,21203,A,23369,KYUCR0001,Kentucky State Police Criminal Identification and Records Branch,KY,1980,,2016,,2016,1193,7,"Cities under 2,500",L,N,N,12,12,1,,,,2006,1,0,40409,37.36105,-84.314368
6834,KY0591800,KY0591800,Fairview Police Department,Fairview,1,City,,,3554,Covington,21,KY,1064,Kenton,21117,A,23369,KYUCR0001,Kentucky State Police Criminal Identification and Records Branch,KY,1974,,2016,2014,2006,146,7,"Cities under 2,500",L,Y,N,0,12,0,6823,KY0590500,Kenton County Police Department,1976,1,0,41015,38.930477,-84.533492
6769,KY0540200,KY0540200,Dawson Springs Police Department,Dawson Springs,1,City,,,3562,Dawson Springs,21,KY,1059,Hopkins,21107,A,23369,KYUCR0001,Kentucky State Police Criminal Identification and Records Branch,KY,1960,,2016,2013,2016,2740,6,"Cities from 2,500 thru 9,999",L,N,N,12,12,10,,,,2015,5,1,42408,37.31107,-87.542196
6815,KY0580000,KY0580000,Johnson County Sheriff's Office,Johnson,2,County,,,,,21,KY,1063,Johnson,21115,A,23369,KYUCR0001,Kentucky State Police Criminal Identification and Records Branch,KY,1960,,2016,2013,2016,18943,8C,"Non-MSA counties from 10,000 thru 24,999",L,N,N,12,12,9,,,,2016,10,2,41240,37.84926,-82.830639
7109,KY1200200,KY1200200,Midway Police Department,Midway,1,City,,,3727,Versailles,21,KY,1125,Woodford,21239,A,23369,KYUCR0001,Kentucky State Police Criminal Identification and Records Branch,KY,1970,,2016,2014,2008,1657,7,"Cities under 2,500",L,Y,N,0,0,0,7108,KY1200100,Versailles,1977,2,0,40383,38.042821,-84.748002
6902,KY0740100,KY0740100,Whitley City Police Department,Whitley City,1,City,,,3738,Whitley City,21,KY,1085,Mccreary,21147,A,23369,KYUCR0001,Kentucky State Police Criminal Identification and Records Branch,KY,1976,,2016,2014,2005,0,7,"Cities under 2,500",L,N,N,0,0,0,6901,KY0740000,McCreary,,,,42653,36.731136,-84.491052
6601,KY0200000,KY0200000,Carlisle County Sheriff's Office,Carlisle,2,County,,,,,21,KY,1025,Carlisle,21039,A,23369,KYUCR0001,Kentucky State Police Criminal Identification and Records Branch,KY,1960,,2016,2013,2016,4237,8D,"Non-MSA counties under 10,000",L,N,N,12,12,8,,,,2016,2,1,42023,36.857726,-88.975757
7048,KY1050600,KY1050600,Scott County Constable District 7,Scott County Constable District 7,5,Other,,,,,21,KY,1110,Scott,21209,A,23369,KYUCR0001,Kentucky State Police Criminal Identification and Records Branch,KY,2005,,2016,,2015,0,9D,"MSA counties under 10,000",L,Y,N,0,0,0,7042,KY1050000,Scott,,,,40324,38.289882,-84.579376
6941,KY082SP00,KY082SP00,State Police: Meade County,State Police: Meade County,4,State Police,,,,,21,KY,1087,Meade,21163,A,23369,KYUCR0001,Kentucky State Police Criminal Identification and Records Branch,KY,1971,2005,2016,2014,2005,0,9D,"MSA counties under 10,000",L,Y,N,0,0,0,7117,KYKSP0400,State Police: Elizabethtown,,,,42702,37.967476,-86.200863
7064,KY1090200,KY1090200,Taylor County Police Department,Taylor County Police Department,2,County,,,3536,Campbellsville,21,KY,1114,Taylor,21217,A,23369,KYUCR0001,Kentucky State Police Criminal Identification and Records Branch,KY,1981,,2016,2014,2004,0,8D,"Non-MSA counties under 10,000",L,N,N,0,12,0,7062,KY1090000,Taylor,1994,13,1,42718,37.366184,-85.327836
6742,KY0480400,KY0480400,Lynch Police Department,Lynch,1,City,,,3642,Lynch,21,KY,1053,Harlan,21095,A,23369,KYUCR0001,Kentucky State Police Criminal Identification and Records Branch,KY,1990,,2016,2014,2016,714,7,"Cities under 2,500",L,N,N,12,12,7,,,,2014,2,0,40855,36.859223,-83.221497
6625,KY0250400,KY0250400,Clark County School System,Clark County School System,5,Other,,,,,21,KY,1030,Clark,21049,A,23369,KYUCR0001,Kentucky State Police Criminal Identification and Records Branch,KY,2005,,2016,2014,2016,0,9D,"MSA counties under 10,000",L,Y,N,12,12,8,,,,2016,4,0,40391,37.970133,-84.144974
6624,KY0250100,KY0250100,Winchester Police Department,Winchester,1,City,,,3744,Winchester,21,KY,1030,Clark,21049,A,23369,KYUCR0001,Kentucky State Police Criminal Identification and Records Branch,KY,1960,,2016,2013,2016,18462,5,"Cities from 10,000 thru 24,999",L,Y,N,12,12,10,,,,2014,34,15,40392,37.970133,-84.144974
7089,KY1150000,KY1150000,Washington County Sheriff's Office,Washington,2,County,,,,,21,KY,1120,Washington,21229,A,23369,KYUCR0001,Kentucky State Police Criminal Identification and Records Branch,KY,1960,,2016,2013,2016,9323,8D,"Non-MSA counties under 10,000",L,N,N,12,12,10,,,,2015,5,0,40069,37.754209,-85.175416
6529,KY0080000,KY0080000,Boone County Sheriff's Office,Boone,2,County,,,,,21,KY,1013,Boone,21015,A,23369,KYUCR0001,Kentucky State Police Criminal Identification and Records Branch,KY,1960,,2016,2013,2016,95756,9B,"MSA counties from 25,000 thru 99,999",L,Y,N,12,12,9,,,,2016,133,7,41005,38.974595,-84.731431
6586,KY0190200,KY0190200,Campbell County Police Department,Campbell County Police Department,2,County,,,,,21,KY,1024,Campbell,21037,A,23369,KYUCR0001,Kentucky State Police Criminal Identification and Records Branch,KY,1960,,2016,2013,2016,18493,9C,"MSA counties from 10,000 thru 24,999",L,Y,N,12,12,10,,,,2015,32,1,41001,38.946981,-84.379583
7071,KY1110000,KY1110000,Trigg County Sheriff's Office,Trigg,2,County,,,,,21,KY,1116,Trigg,21221,A,23369,KYUCR0001,Kentucky State Police Criminal Identification and Records Branch,KY,1960,,2016,2013,2016,11444,9C,"MSA counties from 10,000 thru 24,999",L,Y,N,12,12,10,,,,2016,7,3,42211,36.807681,-87.858652
6549,KY0110200,KY0110200,Junction City Police Department,Junction City,1,City,,,3622,Junction City,21,KY,1016,Boyle,21021,A,23369,KYUCR0001,Kentucky State Police Criminal Identification and Records Branch,KY,1971,,2016,2014,2016,2231,7,"Cities under 2,500",L,N,N,12,12,8,,,,2015,2,0,40440,37.618104,-84.868352
6968,KY089SP00,KY089SP00,State Police: Muhlenberg County,State Police: Muhlenberg County,4,State Police,,,,,21,KY,1094,Muhlenberg,21177,A,23369,KYUCR0001,Kentucky State Police Criminal Identification and Records Branch,KY,1971,2005,2016,2014,2005,0,8D,"Non-MSA counties under 10,000",L,N,N,0,0,0,7115,KYKSP0200,State Police: Madisonville,,,,42442,37.213816,-87.134092
6540,KY0100000,KY0100000,Boyd County Sheriff's Office,Boyd,2,County,,,,,21,KY,1015,Boyd,21019,A,23369,KYUCR0001,Kentucky State Police Criminal Identification and Records Branch,KY,1960,,2016,2013,2016,25518,9B,"MSA counties from 25,000 thru 99,999",L,Y,N,12,12,10,,,,2016,27,4,41129,38.360004,-82.681406
6534,KY008SP00,KY008SP00,State Police: Boone County,State Police: Boone County,4,State Police,,,,,21,KY,1013,Boone,21015,A,23369,KYUCR0001,Kentucky State Police Criminal Identification and Records Branch,KY,1971,2005,2016,2014,2005,0,9D,"MSA counties under 10,000",L,Y,N,0,0,0,7119,KYKSP0600,State Police: Dry Ridge,,,,41035,38.974595,-84.731431
6513,KY0040200,KY0040200,Barlow Police Department,Barlow,1,City,,,3512,Barlow,21,KY,1009,Ballard,21007,A,23369,KYUCR0001,Kentucky State Police Criminal Identification and Records Branch,KY,1992,,2016,2014,2007,675,7,"Cities under 2,500",L,N,N,0,12,0,6511,KY0040000,Ballard,2003,1,0,42024,37.05112,-89.009178
6938,KY0820000,KY0820000,Meade County Sheriff's Office,Meade,2,County,,,,,21,KY,1087,Meade,21163,A,23369,KYUCR0001,Kentucky State Police Criminal Identification and Records Branch,KY,1960,,2016,2013,2016,25180,9B,"MSA counties from 25,000 thru 99,999",L,Y,N,12,12,10,,,,2016,10,8,40108,37.967476,-86.200863
6594,KY0191000,KY0191000,Silver Grove Police Department,Silver Grove,1,City,,,3711,Silver Grove,21,KY,1024,Campbell,21037,A,23369,KYUCR0001,Kentucky State Police Criminal Identification and Records Branch,KY,1992,,2016,2013,2016,1122,7,"Cities under 2,500",L,Y,N,12,12,9,,,,2015,1,0,41085,38.946981,-84.379583
6629,KY0260200,KY0260200,Clay County Schools,Clay County Schools,5,Other,,,,,21,KY,1031,Clay,21051,A,23369,KYUCR0001,Kentucky State Police Criminal Identification and Records Branch,KY,2005,,2016,2014,2008,0,8D,"Non-MSA counties under 10,000",L,N,N,0,12,0,6627,KY0260000,Clay,2005,2,0,40962,37.164466,-83.710762
6697,KY0410100,KY0410100,Williamstown Police Department,Williamstown,1,City,,,3742,Williamstown,21,KY,1046,Grant,21081,A,23369,KYUCR0001,Kentucky State Police Criminal Identification and Records Branch,KY,1970,,2016,2013,2016,3968,6,"Cities from 2,500 thru 9,999",L,Y,N,12,12,10,,,,2015,6,1,41097,38.64921,-84.625946
6909,KY0750300,KY0750300,McLean County Police Department,McLean County Police Department,2,County,,,,,21,KY,1086,Mclean,21149,A,23369,KYUCR0001,Kentucky State Police Criminal Identification and Records Branch,KY,2005,,2016,2014,2008,0,9D,"MSA counties under 10,000",L,Y,N,0,12,0,6906,KY0750000,McLean,2005,1,0,42327,37.530575,-87.262931
6956,KY0870000,KY0870000,Montgomery County Sheriff's Office,Montgomery,2,County,,,,,21,KY,1092,Montgomery,21173,A,23369,KYUCR0001,Kentucky State Police Criminal Identification and Records Branch,KY,1960,,2016,2013,2016,20436,8C,"Non-MSA counties from 10,000 thru 24,999",L,N,N,12,12,10,,,,2016,15,2,40353,38.038138,-83.912337
7012,KY098SP00,KY098SP00,State Police: Pike County,State Police: Pike County,4,State Police,,,,,21,KY,1103,Pike,21195,A,23369,KYUCR0001,Kentucky State Police Criminal Identification and Records Branch,KY,1971,2005,2016,2014,2005,0,8D,"Non-MSA counties under 10,000",L,N,N,0,0,0,7122,KYKSP0900,State Police: Pikeville,,,,41502,37.482067,-82.402869
7028,KY101SP00,KY101SP00,State Police: Robertson County,State Police: Robertson County,4,State Police,,,,,21,KY,1106,Robertson,21201,A,23369,KYUCR0001,Kentucky State Police Criminal Identification and Records Branch,KY,1971,2005,2016,2014,2005,0,8D,"Non-MSA counties under 10,000",L,N,N,0,0,0,7119,KYKSP0600,State Police: Dry Ridge,,,,41035,38.513826,-84.063757
6809,KY0570000,KY0570000,Jessamine County Sheriff's Office,Jessamine,2,County,,,,,21,KY,1062,Jessamine,21113,A,23369,KYUCR0001,Kentucky State Police Criminal Identification and Records Branch,KY,1960,,2016,2013,2016,15777,9C,"MSA counties from 10,000 thru 24,999",L,Y,N,12,12,10,,,,2012,26,8,40356,37.873291,-84.58396
6963,KY0890000,KY0890000,Muhlenberg County Sheriff's Office,Muhlenberg,2,County,,,,,21,KY,1094,Muhlenberg,21177,A,23369,KYUCR0001,Kentucky State Police Criminal Identification and Records Branch,KY,1960,,2016,2013,2016,20072,8C,"Non-MSA counties from 10,000 thru 24,999",L,N,N,12,12,10,,,,2016,13,2,42345,37.213816,-87.134092
6661,KY0350100,KY0350100,Flemingsburg Police Department,Flemingsburg,1,City,,,3580,Flemingsburg,21,KY,1040,Fleming,21069,A,23369,KYUCR0001,Kentucky State Police Criminal Identification and Records Branch,KY,1970,,2016,2013,2016,2709,6,"Cities from 2,500 thru 9,999",L,N,N,12,12,10,,,,2016,7,0,41041,38.368431,-83.706152
6827,KY0590900,KY0590900,Crescent Springs Police Department,Crescent Springs,1,City,,,12035,Crescent Springs,21,KY,1064,Kenton,21117,A,23369,KYUCR0001,Kentucky State Police Criminal Identification and Records Branch,KY,1970,,2016,2014,2009,4000,6,"Cities from 2,500 thru 9,999",L,Y,N,0,12,1,6821,KY0590300,Erlanger,2007,8,0,41017,38.930477,-84.533492
6669,KY0360600,KY0360600,Floyd County Constable District 1,Floyd County Constable District 1,5,Other,,,,,21,KY,1041,Floyd,21071,A,23369,KYUCR0001,Kentucky State Police Criminal Identification and Records Branch,KY,1992,,2016,2014,2014,0,8D,"Non-MSA counties under 10,000",L,N,N,0,0,0,6663,KY0360000,Floyd,2009,1,0,41653,37.558283,-82.740337
7008,KY0980200,KY0980200,Elkhorn City Police Department,Elkhorn City,1,City,,,3570,Elkhorn City,21,KY,1103,Pike,21195,A,23369,KYUCR0001,Kentucky State Police Criminal Identification and Records Branch,KY,1992,,2016,2014,2016,943,7,"Cities under 2,500",L,N,N,12,12,2,,,,2016,1,1,41522,37.482067,-82.402869
6810,KY0570100,KY0570100,Nicholasville Police Department,Nicholasville,1,City,,,3670,Nicholasville,21,KY,1062,Jessamine,21113,A,23369,KYUCR0001,Kentucky State Police Criminal Identification and Records Branch,KY,1960,,2016,2013,2016,29351,4,"Cities from 25,000 thru 49,999",L,Y,N,12,12,10,,,,2015,61,9,40356,37.873291,-84.58396
6832,KY0591500,KY0591500,Bromley Police Department,Bromley,1,City,,,3641,Ludlow,21,KY,1064,Kenton,21117,A,23369,KYUCR0001,Kentucky State Police Criminal Identification and Records Branch,KY,1971,,2016,2014,2006,810,7,"Cities under 2,500",L,Y,N,0,12,0,6823,KY0590500,Kenton County Police Department,1986,2,0,41016,38.930477,-84.533492
6970,KY0900100,KY0900100,Bardstown Police Department,Bardstown,1,City,,,3510,Bardstown,21,KY,1095,Nelson,21179,A,23369,KYUCR0001,Kentucky State Police Criminal Identification and Records Branch,KY,1960,,2016,2013,2016,13087,5,"Cities from 10,000 thru 24,999",L,N,N,12,12,10,,,,2015,27,1,40004,37.803188,-85.465955
6866,KY066SP00,KY066SP00,State Police: Leslie County,State Police: Leslie County,4,State Police,,,,,21,KY,1071,Leslie,21131,A,23369,KYUCR0001,Kentucky State Police Criminal Identification and Records Branch,KY,1971,2005,2016,2014,2005,0,8D,"Non-MSA counties under 10,000",L,N,N,0,0,0,7126,KYKSP1300,State Police: Hazard,,,,41701,37.087846,-83.388617
6901,KY0740000,KY0740000,McCreary County Sheriff's Office,McCreary,2,County,,,,,21,KY,1085,Mccreary,21147,A,23369,KYUCR0001,Kentucky State Police Criminal Identification and Records Branch,KY,1960,,2016,2013,2016,17743,8C,"Non-MSA counties from 10,000 thru 24,999",L,N,N,12,12,10,,,,2016,3,1,42653,36.731136,-84.491052
7049,KY1051000,KY1051000,Scott County Constable District 5,Scott County Constable District 5,5,Other,,,,,21,KY,1110,Scott,21209,A,23369,KYUCR0001,Kentucky State Police Criminal Identification and Records Branch,KY,2005,,2016,,2015,0,9D,"MSA counties under 10,000",L,Y,N,0,0,0,7042,KY1050000,Scott,,,,40324,38.289882,-84.579376
7091,KY115SP00,KY115SP00,State Police: Washington County,State Police: Washington County,4,State Police,,,,,21,KY,1120,Washington,21229,A,23369,KYUCR0001,Kentucky State Police Criminal Identification and Records Branch,KY,1971,2005,2016,2014,2005,0,8D,"Non-MSA counties under 10,000",L,N,N,0,0,0,7128,KYKSP1500,State Police: Columbia,,,,42728,37.754209,-85.175416
6685,KY0380200,KY0380200,Hickman Police Department,Hickman,1,City,,,3605,Hickman,21,KY,1043,Fulton,21075,A,23369,KYUCR0001,Kentucky State Police Criminal Identification and Records Branch,KY,1970,,2016,,,2168,7,"Cities under 2,500",L,N,N,11,11,2,,,,2009,3,0,42050,36.55262,-89.187723
7014,KY0990100,KY0990100,Stanton Police Department,Stanton,1,City,,,3720,Stanton,21,KY,1104,Powell,21197,A,23369,KYUCR0001,Kentucky State Police Criminal Identification and Records Branch,KY,1978,,2016,2013,2016,2686,6,"Cities from 2,500 thru 9,999",L,N,N,12,12,9,,,,2015,6,0,40380,37.800423,-83.819883
6673,KY0370200,KY0370200,Motor Vehicle Enforcement,Motor Vehicle Enforcement,6,Other State Agency,,,,,21,KY,1042,Franklin,21073,A,23369,KYUCR0001,Kentucky State Police Criminal Identification and Records Branch,KY,1992,,2016,2013,2016,0,7,"Cities under 2,500",L,N,N,12,12,10,,,,2014,136,18,40622,38.234919,-84.868786
6881,KY0700000,KY0700000,Livingston County Sheriff's Office,Livingston,2,County,,,,,21,KY,1075,Livingston,21139,A,23369,KYUCR0001,Kentucky State Police Criminal Identification and Records Branch,KY,1960,,2016,2013,2016,9305,8D,"Non-MSA counties under 10,000",L,N,N,12,12,10,,,,2016,5,1,42081,37.209517,-88.363426
6945,KY0840100,KY0840100,Harrodsburg Police Department,Harrodsburg,1,City,,,3600,Harrodsburg,21,KY,1089,Mercer,21167,A,23369,KYUCR0001,Kentucky State Police Criminal Identification and Records Branch,KY,1960,,2016,2013,2016,8360,6,"Cities from 2,500 thru 9,999",L,N,N,12,12,10,,,,2016,19,11,40330,37.812085,-84.879694
7018,KY1000100,KY1000100,Somerset Police Department,Somerset,1,City,,,3714,Somerset,21,KY,1105,Pulaski,21199,A,23369,KYUCR0001,Kentucky State Police Criminal Identification and Records Branch,KY,1960,,2016,2013,2016,11473,5,"Cities from 10,000 thru 24,999",L,N,N,12,12,10,,,,2015,40,6,42501,37.108312,-84.579986
6792,KY0561900,KY0561900,Audubon Park Police Department,Audubon Park,1,City,,,3639,Louisville,21,KY,1061,Jefferson,21111,A,23369,KYUCR0001,Kentucky State Police Criminal Identification and Records Branch,KY,1976,,2016,2013,2016,1509,7,"Cities under 2,500",L,Y,N,12,12,10,,,,2015,2,0,40213,38.189533,-85.657624
6721,KY0450600,KY0450600,Worthington Police Department,Worthington,1,City,,,3746,Worthington,21,KY,1050,Greenup,21089,A,23369,KYUCR0001,Kentucky State Police Criminal Identification and Records Branch,KY,1982,,2016,2013,2016,1580,7,"Cities under 2,500",L,Y,N,12,12,9,,,,2014,4,0,41183,38.563596,-82.933832
6787,KY0561300,KY0561300,St. Regis Park Police Department,St. Regis Park,1,City,,,3639,Louisville,21,KY,1061,Jefferson,21111,A,23369,KYUCR0001,Kentucky State Police Criminal Identification and Records Branch,KY,1982,,2016,2014,2006,1504,7,"Cities under 2,500",L,Y,N,0,12,0,6807,KY0568000,Louisville Metro,1989,16,2,40220,38.189533,-85.657624
6677,KY0371100,KY0371100,Water Patrol,Water Patrol,6,Other State Agency,,,,,21,KY,1042,Franklin,21073,A,23369,KYUCR0001,Kentucky State Police Criminal Identification and Records Branch,KY,1992,,2016,2014,2004,0,7,"Cities under 2,500",L,N,N,0,0,0,6671,KY0370000,Franklin,1995,42,5,40601,38.234919,-84.868786
6818,KY0590000,KY0590000,Kenton County Sheriff's Office,Kenton,2,County,,,,,21,KY,1064,Kenton,21117,A,23369,KYUCR0001,Kentucky State Police Criminal Identification and Records Branch,KY,1960,,2016,2013,2016,0,9D,"MSA counties under 10,000",L,Y,N,12,12,9,,,,2014,23,14,41011,38.930477,-84.533492
6520,KY0051100,KY0051100,Barren County Drug Task Force,Barren County Drug Task Force,5,Other,,,,,21,KY,1010,Barren,21009,A,23369,KYUCR0001,Kentucky State Police Criminal Identification and Records Branch,KY,2005,,2016,2013,2016,0,8D,"Non-MSA counties under 10,000",L,N,N,12,12,9,,,,2016,1,1,42141,36.963614,-85.92499
6667,KY0360400,KY0360400,Wayland Police Department,Wayland,1,City,,,3733,Wayland,21,KY,1041,Floyd,21071,A,23369,KYUCR0001,Kentucky State Police Criminal Identification and Records Branch,KY,1990,,2016,2013,2016,410,7,"Cities under 2,500",L,N,N,12,12,4,,,,2015,1,0,41666,37.558283,-82.740337
6562,KY0140300,KY0140300,Irvington Police Department,Irvington,1,City,,,3617,Irvington,21,KY,1019,Breckinridge,21027,A,23369,KYUCR0001,Kentucky State Police Criminal Identification and Records Branch,KY,1970,,2016,2013,2016,1179,7,"Cities under 2,500",L,N,N,12,12,10,,,,2014,3,0,40146,37.778109,-86.432829
7053,KY1060400,KY1060400,Shelby County Constable District 3,Shelby County Constable District 3,5,Other,,,,,21,KY,1111,Shelby,21211,A,23369,KYUCR0001,Kentucky State Police Criminal Identification and Records Branch,KY,1992,,2016,,2015,0,9D,"MSA counties under 10,000",L,Y,N,0,0,0,7051,KY1060000,Shelby,1995,1,0,40065,38.239426,-85.22836
6746,KY048SP00,KY048SP00,State Police: Harlan County,State Police: Harlan County,4,State Police,,,,,21,KY,1053,Harlan,21095,A,23369,KYUCR0001,Kentucky State Police Criminal Identification and Records Branch,KY,1971,2005,2016,2014,2005,0,8D,"Non-MSA counties under 10,000",L,N,N,0,0,0,7123,KYKSP1000,State Police: Harlan,,,,40831,36.859223,-83.221497
6892,KY0720200,KY0720200,Eddyville Police Department,Eddyville,1,City,,,3566,Eddyville,21,KY,1077,Lyon,21143,A,23369,KYUCR0001,Kentucky State Police Criminal Identification and Records Branch,KY,1970,,2016,2013,2016,2623,6,"Cities from 2,500 thru 9,999",L,N,N,12,12,9,,,,2016,5,0,42038,37.023976,-88.083391
6703,KY0420100,KY0420100,Mayfield Police Department,Mayfield,1,City,,,3647,Mayfield,21,KY,1047,Graves,21083,A,23369,KYUCR0001,Kentucky State Police Criminal Identification and Records Branch,KY,1960,,2016,2013,2016,10141,5,"Cities from 10,000 thru 24,999",L,N,N,12,12,9,,,,2015,24,0,42066,36.723344,-88.649897
6919,KY077SP00,KY077SP00,State Police: Magoffin County,State Police: Magoffin County,4,State Police,,,,,21,KY,1079,Magoffin,21153,A,23369,KYUCR0001,Kentucky State Police Criminal Identification and Records Branch,KY,1971,2005,2016,2014,2005,0,8D,"Non-MSA counties under 10,000",L,N,N,0,0,0,7122,KYKSP0900,State Police: Pikeville,,,,41502,37.698953,-83.069716
6704,KY0420200,KY0420200,Wingo Police Department,Wingo,1,City,,,3745,Wingo,21,KY,1047,Graves,21083,A,23369,KYUCR0001,Kentucky State Police Criminal Identification and Records Branch,KY,1978,,2016,,2016,644,7,"Cities under 2,500",L,N,N,12,12,1,,,,2014,1,0,42088,36.723344,-88.649897
6779,KY0560100,KY0560100,Jefferson County Police Department,Jefferson County Police Department,2,County,,,3639,Louisville,21,KY,1061,Jefferson,21111,A,23369,KYUCR0001,Kentucky State Police Criminal Identification and Records Branch,KY,1960,,2016,2014,2004,0,9D,"MSA counties under 10,000",L,Y,N,0,12,0,6807,KY0568000,Louisville Metro,2002,484,158,40204,38.189533,-85.657624
6633,KY027SP00,KY027SP00,State Police: Clinton County,State Police: Clinton County,4,State Police,,,,,21,KY,1032,Clinton,21053,A,23369,KYUCR0001,Kentucky State Police Criminal Identification and Records Branch,KY,1971,2005,2016,2014,2005,0,8D,"Non-MSA counties under 10,000",L,N,N,0,0,0,7128,KYKSP1500,State Police: Columbia,,,,42728,36.728865,-85.153426
7062,KY1090000,KY1090000,Taylor County Sheriff's Office,Taylor,2,County,,,,,21,KY,1114,Taylor,21217,A,23369,KYUCR0001,Kentucky State Police Criminal Identification and Records Branch,KY,1960,,2016,2013,2016,13964,8C,"Non-MSA counties from 10,000 thru 24,999",L,N,N,12,12,10,,,,2015,10,3,42718,37.366184,-85.327836
6995,KY0950100,KY0950100,Booneville Police Department,Booneville,1,City,,,3520,Booneville,21,KY,1100,Owsley,21189,A,23369,KYUCR0001,Kentucky State Police Criminal Identification and Records Branch,KY,1992,,2016,,2016,76,7,"Cities under 2,500",L,N,N,12,12,1,,,,2016,1,0,41314,37.423614,-83.691628
6986,KY0930100,KY0930100,La Grange Police Department,La Grange,1,City,,,3624,La Grange,21,KY,1098,Oldham,21185,A,23369,KYUCR0001,Kentucky State Police Criminal Identification and Records Branch,KY,1970,,2016,2013,2016,8625,6,"Cities from 2,500 thru 9,999",L,Y,N,12,12,10,,,,2015,13,0,40031,38.400046,-85.456059
6543,KY0100300,KY0100300,Boyd County Police Department,Boyd County Police Department,2,County,,,3541,Catlettsburg,21,KY,1015,Boyd,21019,A,23369,KYUCR0001,Kentucky State Police Criminal Identification and Records Branch,KY,1990,,2016,2014,2008,0,9D,"MSA counties under 10,000",L,Y,N,0,12,0,6540,KY0100000,Boyd,2006,4,0,41129,38.360004,-82.681406
6550,KY0110300,KY0110300,Perryville Police Department,Perryville,1,City,,,3684,Perryville,21,KY,1016,Boyle,21021,A,23369,KYUCR0001,Kentucky State Police Criminal Identification and Records Branch,KY,1981,,2016,2013,2016,761,7,"Cities under 2,500",L,N,N,12,12,4,,,,2010,1,0,40468,37.618104,-84.868352
7073,KY1110200,KY1110200,Tennessee Valley Authority,Tennessee Valley Authority,5,Other,,,,,21,KY,1116,Trigg,21221,A,23369,KYUCR0001,Kentucky State Police Criminal Identification and Records Branch,KY,1990,,2016,,2016,0,7,"Cities under 2,500",L,Y,N,12,12,1,,,,2009,10,1,38222,36.807681,-87.858652
6632,KY0270100,KY0270100,Albany Police Department,Albany,1,City,,,3502,Albany,21,KY,1032,Clinton,21053,A,23369,KYUCR0001,Kentucky State Police Criminal Identification and Records Branch,KY,1970,,2016,2013,2016,2005,7,"Cities under 2,500",L,N,N,12,12,8,,,,2015,7,0,42602,36.728865,-85.153426
6936,KY0810300,KY0810300,Buffalo Trace-Gateway Narcotics Task Force,Buffalo Trace-Gateway Narcotics Task Force,5,Other,,,,,21,KY,1083,Mason,21161,A,23369,KYUCR0001,Kentucky State Police Criminal Identification and Records Branch,KY,1993,,2016,2013,2016,0,7,"Cities under 2,500",L,N,N,0,12,7,6933,KY0810000,Mason,2012,3,1,41056,38.594068,-83.828052
6699,KY0410300,KY0410300,Corinth Police Department,Corinth,1,City,,,3742,Williamstown,21,KY,1046,Grant,21081,A,23369,KYUCR0001,Kentucky State Police Criminal Identification and Records Branch,KY,1980,,2016,2014,2004,235,7,"Cities under 2,500",L,Y,N,0,12,0,6696,KY0410000,Grant,,,,41097,38.64921,-84.625946
7031,KY1020200,KY1020200,Mount Vernon Police Department,Mount Vernon,1,City,,,3661,Mount Vernon,21,KY,1107,Rockcastle,21203,A,23369,KYUCR0001,Kentucky State Police Criminal Identification and Records Branch,KY,1970,,2016,2013,2016,2475,7,"Cities under 2,500",L,N,N,12,12,10,,,,2015,8,0,40456,37.36105,-84.314368
6914,KY0760300,KY0760300,Eastern Kentucky University,Eastern Kentucky University,3,University or College,,178,,,21,KY,1078,Madison,21151,A,23369,KYUCR0001,Kentucky State Police Criminal Identification and Records Branch,KY,1973,,2016,2013,2016,0,7,"Cities under 2,500",L,N,N,12,12,10,,,,2015,24,7,40475,37.723528,-84.277008
6748,KY0490100,KY0490100,Cynthiana Police Department,Cynthiana,1,City,,,3560,Cynthiana,21,KY,1054,Harrison,21097,A,23369,KYUCR0001,Kentucky State Police Criminal Identification and Records Branch,KY,1960,,2016,2013,2016,6348,6,"Cities from 2,500 thru 9,999",L,N,N,12,12,10,,,,2015,12,1,41031,38.444578,-84.334131
6886,KY0710200,KY0710200,Auburn Police Department,Auburn,1,City,,,3507,Auburn,21,KY,1076,Logan,21141,A,23369,KYUCR0001,Kentucky State Police Criminal Identification and Records Branch,KY,1970,,2016,2013,2016,1347,7,"Cities under 2,500",L,N,N,12,12,10,,,,2016,2,0,42206,36.859829,-86.881436
6907,KY0750100,KY0750100,Calhoun Police Department,Calhoun,1,City,,,3533,Calhoun,21,KY,1086,Mclean,21149,A,23369,KYUCR0001,Kentucky State Police Criminal Identification and Records Branch,KY,1977,,2016,2014,2013,761,7,"Cities under 2,500",L,Y,N,0,12,5,6906,KY0750000,McLean,2010,1,0,42327,37.530575,-87.262931
6718,KY0450300,KY0450300,Raceland Police Department,Raceland,1,City,,,3695,Raceland,21,KY,1050,Greenup,21089,A,23369,KYUCR0001,Kentucky State Police Criminal Identification and Records Branch,KY,1970,,2016,2013,2016,2380,7,"Cities under 2,500",L,Y,N,12,12,10,,,,2015,6,0,41169,38.563596,-82.933832
6674,KY0370300,KY0370300,Park Security,Park Security,6,Other State Agency,,,,,21,KY,1042,Franklin,21073,A,23369,KYUCR0001,Kentucky State Police Criminal Identification and Records Branch,KY,1992,,2016,2013,2016,0,7,"Cities under 2,500",L,N,N,12,12,9,,,,2015,41,2,40601,38.234919,-84.868786
6578,KY0170100,KY0170100,Princeton Police Department,Princeton,1,City,,,3692,Princeton,21,KY,1022,Caldwell,21033,A,23369,KYUCR0001,Kentucky State Police Criminal Identification and Records Branch,KY,1960,,2016,2013,2016,6166,6,"Cities from 2,500 thru 9,999",L,N,N,12,12,10,,,,2016,14,1,42445,37.148643,-87.87051
6603,KY020SP00,KY020SP00,State Police: Carlisle County,State Police: Carlisle County,4,State Police,,,,,21,KY,1025,Carlisle,21039,A,23369,KYUCR0001,Kentucky State Police Criminal Identification and Records Branch,KY,1971,2005,2016,2014,2005,0,8D,"Non-MSA counties under 10,000",L,N,N,0,0,0,7114,KYKSP0100,State Police: Mayfield,,,,42051,36.857726,-88.975757
7100,KY1180000,KY1180000,Whitley County Sheriff's Office,Whitley,2,County,,,,,21,KY,1123,Whitley,21235,A,23369,KYUCR0001,Kentucky State Police Criminal Identification and Records Branch,KY,1960,,2016,2013,2016,24627,8C,"Non-MSA counties from 10,000 thru 24,999",L,N,N,12,12,8,,,,2016,13,6,40769,36.758021,-84.14455
6795,KY0562600,KY0562600,Forest Hills Police Department,Forest Hills,1,City,,,3639,Louisville,21,KY,1061,Jefferson,21111,A,23369,KYUCR0001,Kentucky State Police Criminal Identification and Records Branch,KY,2005,,2016,2014,2007,458,7,"Cities under 2,500",L,Y,N,0,12,0,6807,KY0568000,Louisville Metro,2005,1,0,40299,38.189533,-85.657624
6973,KY0900500,KY0900500,Nelson County Police Department,Nelson County Police Department,2,County,,,3510,Bardstown,21,KY,1095,Nelson,21179,A,23369,KYUCR0001,Kentucky State Police Criminal Identification and Records Branch,KY,1986,,2016,2014,2004,0,8D,"Non-MSA counties under 10,000",L,N,N,0,12,0,6969,KY0900000,Nelson,1999,7,0,40004,37.803188,-85.465955
6931,KY0800100,KY0800100,Inez Police Department,Inez,1,City,,,3615,Inez,21,KY,1082,Martin,21159,A,23369,KYUCR0001,Kentucky State Police Criminal Identification and Records Branch,KY,1992,,2016,2013,2016,690,7,"Cities under 2,500",L,N,N,12,12,9,,,,2015,1,0,41224,37.796774,-82.506623
6657,KY0340500,KY0340500,Lexington Bluegrass Airport,Lexington Bluegrass Airport,5,Other,,,,,21,KY,1039,Fayette,21067,A,23369,KYUCR0001,Kentucky State Police Criminal Identification and Records Branch,KY,1990,,2016,2013,2016,0,7,"Cities under 2,500",L,Y,N,12,12,7,,,,2016,20,9,40510,38.040149,-84.458421
7043,KY1050100,KY1050100,Georgetown Police Department,Georgetown,1,City,,,3590,Georgetown,21,KY,1110,Scott,21209,A,23369,KYUCR0001,Kentucky State Police Criminal Identification and Records Branch,KY,1960,,2016,2013,2016,32273,4,"Cities from 25,000 thru 49,999",L,Y,N,12,12,9,,,,2013,51,3,40324,38.289882,-84.579376
7025,KY100SP00,KY100SP00,State Police: Pulaski County,State Police: Pulaski County,4,State Police,,,,,21,KY,1105,Pulaski,21199,A,23369,KYUCR0001,Kentucky State Police Criminal Identification and Records Branch,KY,1971,2005,2016,2014,2005,0,8D,"Non-MSA counties under 10,000",L,N,N,0,0,0,7124,KYKSP1100,State Police: London,,,,40741,37.108312,-84.579986
6501,KY0010100,KY0010100,Columbia Police Department,Columbia,1,City,,,3551,Columbia,21,KY,1006,Adair,21001,A,23369,KYUCR0001,Kentucky State Police Criminal Identification and Records Branch,KY,1970,,2016,2013,2016,4928,6,"Cities from 2,500 thru 9,999",L,N,N,12,12,10,,,,2015,12,1,42728,37.105559,-85.28138
6640,KY0300000,KY0300000,Daviess County Sheriff's Office,Daviess,2,County,,,,,21,KY,1035,Daviess,21059,A,23369,KYUCR0001,Kentucky State Police Criminal Identification and Records Branch,KY,1960,,2016,2013,2016,39950,9B,"MSA counties from 25,000 thru 99,999",L,Y,N,12,12,10,,,,2016,37,4,42303,37.731671,-87.087139
6582,KY0180200,KY0180200,Murray State University,Murray State University,3,University or College,,400,,,21,KY,1023,Calloway,21035,A,23369,KYUCR0001,Kentucky State Police Criminal Identification and Records Branch,KY,1979,,2016,2013,2016,0,7,"Cities under 2,500",L,N,N,12,12,10,,,,2016,16,0,42071,36.620978,-88.274086
6511,KY0040000,KY0040000,Ballard County Sheriff's Office,Ballard,2,County,,,,,21,KY,1009,Ballard,21007,A,23369,KYUCR0001,Kentucky State Police Criminal Identification and Records Branch,KY,1960,,2016,2013,2016,7218,8D,"Non-MSA counties under 10,000",L,N,N,12,12,10,,,,2015,12,0,42087,37.05112,-89.009178
6693,KY0400100,KY0400100,Lancaster Police Department,Lancaster,1,City,,,3625,Lancaster,21,KY,1045,Garrard,21079,A,23369,KYUCR0001,Kentucky State Police Criminal Identification and Records Branch,KY,1960,,2016,2013,2016,3757,6,"Cities from 2,500 thru 9,999",L,N,N,12,12,10,,,,2016,10,1,40444,37.630162,-84.545856
6775,KY0550100,KY0550100,McKee Police Department,McKee,1,City,,,3649,McKee,21,KY,1060,Jackson,21109,A,23369,KYUCR0001,Kentucky State Police Criminal Identification and Records Branch,KY,1992,,2016,2013,2016,783,7,"Cities under 2,500",L,N,N,12,12,5,,,,2010,1,0,40447,37.40332,-84.020686
6987,KY0930300,KY0930300,Pewee Valley Police Department,Pewee Valley,1,City,,,3685,Pewee Valley,21,KY,1098,Oldham,21185,A,23369,KYUCR0001,Kentucky State Police Criminal Identification and Records Branch,KY,1970,,2016,2013,2016,1540,7,"Cities under 2,500",L,Y,N,12,12,9,,,,2015,1,0,40056,38.400046,-85.456059
6749,KY049SP00,KY049SP00,State Police: Harrison County,State Police: Harrison County,4,State Police,,,,,21,KY,1054,Harrison,21097,A,23369,KYUCR0001,Kentucky State Police Criminal Identification and Records Branch,KY,1971,2005,2016,2014,2005,0,8D,"Non-MSA counties under 10,000",L,N,N,0,0,0,7119,KYKSP0600,State Police: Dry Ridge,,,,42035,38.444578,-84.334131
6814,KY057SP00,KY057SP00,State Police: Jessamine County,State Police: Jessamine County,4,State Police,,,,,21,KY,1062,Jessamine,21113,A,23369,KYUCR0001,Kentucky State Police Criminal Identification and Records Branch,KY,1971,2005,2016,2014,2005,0,9D,"MSA counties under 10,000",L,Y,N,0,0,0,7120,KYKSP0700,State Police: Richmond,,,,40475,37.873291,-84.58396
6552,KY0120000,KY0120000,Bracken County Sheriff's Office,Bracken,2,County,,,,,21,KY,1017,Bracken,21023,A,23369,KYUCR0001,Kentucky State Police Criminal Identification and Records Branch,KY,1960,,2016,2013,2016,6562,9D,"MSA counties under 10,000",L,Y,N,12,12,10,,,,2012,4,1,41004,38.677557,-84.10468
6960,KY0880000,KY0880000,Morgan County Sheriff's Office,Morgan,2,County,,,,,21,KY,1093,Morgan,21175,A,23369,KYUCR0001,Kentucky State Police Criminal Identification and Records Branch,KY,1960,,2016,,2016,9903,8D,"Non-MSA counties under 10,000",L,N,N,12,12,1,,,,2009,3,2,41472,37.92294,-83.258944
6686,KY038SP00,KY038SP00,State Police: Fulton County,State Police: Fulton County,4,State Police,,,,,21,KY,1043,Fulton,21075,A,23369,KYUCR0001,Kentucky State Police Criminal Identification and Records Branch,KY,1971,2005,2016,2014,2005,0,8D,"Non-MSA counties under 10,000",L,N,N,0,0,0,7114,KYKSP0100,State Police: Mayfield,,,,42051,36.55262,-89.187723
6506,KY002SP00,KY002SP00,State Police: Allen County,State Police: Allen County,4,State Police,,,,,21,KY,1007,Allen,21003,A,23369,KYUCR0001,Kentucky State Police Criminal Identification and Records Branch,KY,1971,2005,2016,2014,2005,0,9D,"MSA counties under 10,000",L,Y,N,0,0,0,7116,KYKSP0300,State Police: Bowling Green,,,,42102,36.75077,-86.192458
6712,KY0440000,KY0440000,Green County Sheriff's Office,Green,2,County,,,,,21,KY,1049,Green,21087,A,23369,KYUCR0001,Kentucky State Police Criminal Identification and Records Branch,KY,1960,,2016,2013,2016,8863,8D,"Non-MSA counties under 10,000",L,N,N,12,12,7,,,,2016,4,8,42743,37.269637,-85.561403
6544,KY0100400,KY0100400,FIVCO Area Drug Task Force,FIVCO Area Drug Task Force,5,Other,,,,,21,KY,1015,Boyd,21019,A,23369,KYUCR0001,Kentucky State Police Criminal Identification and Records Branch,KY,1992,,2016,2013,2016,0,7,"Cities under 2,500",L,Y,N,12,12,10,,,,2015,7,1,41139,38.360004,-82.681406
6860,KY064SP00,KY064SP00,State Police: Lawrence County,State Police: Lawrence County,4,State Police,,,,,21,KY,1069,Lawrence,21127,A,23369,KYUCR0001,Kentucky State Police Criminal Identification and Records Branch,KY,1971,2005,2016,2014,2005,0,8D,"Non-MSA counties under 10,000",L,N,N,0,0,0,7127,KYKSP1400,State Police: Ashland,,,,41102,38.074453,-82.738316
6524,KY006SP00,KY006SP00,State Police: Bath County,State Police: Bath County,4,State Police,,,,,21,KY,1011,Bath,21011,A,23369,KYUCR0001,Kentucky State Police Criminal Identification and Records Branch,KY,1971,2005,2016,2014,2005,0,8D,"Non-MSA counties under 10,000",L,N,N,0,0,0,7121,KYKSP0800,State Police: Morehead,,,,40351,38.152249,-83.737641
6994,KY0950000,KY0950000,Owsley County Sheriff's Office,Owsley,2,County,,,,,21,KY,1100,Owsley,21189,A,23369,KYUCR0001,Kentucky State Police Criminal Identification and Records Branch,KY,1960,,2016,2013,2016,4363,8D,"Non-MSA counties under 10,000",L,N,N,12,12,7,,,,2014,3,1,41   ,37.423614,-83.691628
6783,KY0560500,KY0560500,Anchorage Police Department,Anchorage,1,City,,,3505,Anchorage,21,KY,1061,Jefferson,21111,A,23369,KYUCR0001,Kentucky State Police Criminal Identification and Records Branch,KY,1970,,2016,2013,2016,2422,7,"Cities under 2,500",L,Y,N,12,12,10,,,,2016,10,4,40223,38.189533,-85.657624
6503,KY001SP00,KY001SP00,State Police: Adair County,State Police: Adair County,4,State Police,,,,,21,KY,1006,Adair,21001,A,23369,KYUCR0001,Kentucky State Police Criminal Identification and Records Branch,KY,1971,2005,2016,2014,2005,0,8D,"Non-MSA counties under 10,000",L,N,N,0,0,0,7128,KYKSP1500,State Police: Columbia,,,,42728,37.105559,-85.28138
6557,KY0130100,KY0130100,Jackson Police Department,Jackson,1,City,,,3618,Jackson,21,KY,1018,Breathitt,21025,A,23369,KYUCR0001,Kentucky State Police Criminal Identification and Records Branch,KY,1970,,2016,2013,2016,2123,7,"Cities under 2,500",L,N,N,12,12,10,,,,2016,8,3,41339,37.521178,-83.322401
6859,KY0640100,KY0640100,Louisa Police Department,Louisa,1,City,,,3638,Louisa,21,KY,1069,Lawrence,21127,A,23369,KYUCR0001,Kentucky State Police Criminal Identification and Records Branch,KY,1970,,2016,2013,2016,2462,7,"Cities under 2,500",L,N,N,12,12,10,,,,2016,6,0,41230,38.074453,-82.738316
6617,KY0240200,KY0240200,Crofton Police Department,Crofton,1,City,,,3558,Crofton,21,KY,1029,Christian,21047,A,23369,KYUCR0001,Kentucky State Police Criminal Identification and Records Branch,KY,1970,,2016,,2015,764,7,"Cities under 2,500",L,Y,N,0,12,0,6615,KY0240000,Christian,2008,1,0,42217,36.892059,-87.492986
6758,KY0520000,KY0520000,Henry County Sheriff's Office,Henry,2,County,,,,,21,KY,1057,Henry,21103,A,23369,KYUCR0001,Kentucky State Police Criminal Identification and Records Branch,KY,1960,,2016,2013,2016,12235,9C,"MSA counties from 10,000 thru 24,999",L,Y,N,12,12,8,,,,2015,7,1,40050,38.451561,-85.120079
7096,KY1170200,KY1170200,Providence Police Department,Providence,1,City,,,3694,Providence,21,KY,1122,Webster,21233,A,23369,KYUCR0001,Kentucky State Police Criminal Identification and Records Branch,KY,1960,,2016,2013,2016,3060,6,"Cities from 2,500 thru 9,999",L,N,N,12,12,10,,,,2015,6,0,42450,37.51946,-87.68479
7135,KYUSM0200,KYUSM0200,United State Marshals Service Lexington,United State Marshals Service Lexington,8,Federal,,,,,21,KY,1039,Fayette,21067,A,23369,KYUCR0001,Kentucky State Police Criminal Identification and Records Branch,KY,2007,,2016,2014,2016,0,7,"Cities under 2,500",L,Y,N,0,0,0,6653,KY0340000,Fayette,2009,23,5,,,
7083,KY1140100,KY1140100,Bowling Green Police Department,Bowling Green,1,City,,,3521,Bowling Green,21,KY,1119,Warren,21227,A,23369,KYUCR0001,Kentucky State Police Criminal Identification and Records Branch,KY,1960,,2016,2013,2016,63346,3,"Cities from 50,000 thru 99,000",L,N,Y,12,12,10,,,,2016,116,35,42101,36.995634,-86.423579
6966,KY0890400,KY0890400,Powderly Police Department,Powderly,1,City,,,3690,Powderly,21,KY,1094,Muhlenberg,21177,A,23369,KYUCR0001,Kentucky State Police Criminal Identification and Records Branch,KY,1990,,2016,2013,2016,731,7,"Cities under 2,500",L,N,N,12,12,8,,,,2016,2,0,42367,37.213816,-87.134092
6785,KY0561000,KY0561000,Jeffersontown Police Department,Jeffersontown,1,City,,,3620,Jeffersontown,21,KY,1061,Jefferson,21111,A,23369,KYUCR0001,Kentucky State Police Criminal Identification and Records Branch,KY,1960,,2016,2013,2016,27027,4,"Cities from 25,000 thru 49,999",L,Y,N,12,12,10,,,,2016,49,10,40299,38.189533,-85.657624
6741,KY0480300,KY0480300,Loyall Police Department,Loyall,1,City,,,3640,Loyall,21,KY,1053,Harlan,21095,A,23369,KYUCR0001,Kentucky State Police Criminal Identification and Records Branch,KY,1978,,2016,2013,2016,660,7,"Cities under 2,500",L,N,N,12,12,7,,,,2016,2,0,40854,36.859223,-83.221497
6596,KY0191300,KY0191300,Melbourne Police Department,Melbourne,1,City,,,3650,Melbourne,21,KY,1024,Campbell,21037,A,23369,KYUCR0001,Kentucky State Police Criminal Identification and Records Branch,KY,1974,,2016,2014,2000,406,7,"Cities under 2,500",L,Y,N,0,12,0,6586,KY0190200,Campbell County Police Department,1980,1,0,41059,38.946981,-84.379583
6939,KY0820100,KY0820100,Brandenburg Police Department,Brandenburg,1,City,,,3523,Brandenburg,21,KY,1087,Meade,21163,A,23369,KYUCR0001,Kentucky State Police Criminal Identification and Records Branch,KY,1970,,2016,2013,2016,2979,6,"Cities from 2,500 thru 9,999",L,Y,N,12,12,9,,,,2015,5,0,40108,37.967476,-86.200863
6978,KY091SP00,KY091SP00,State Police: Nicholas County,State Police: Nicholas County,4,State Police,,,,,21,KY,1096,Nicholas,21181,A,23369,KYUCR0001,Kentucky State Police Criminal Identification and Records Branch,KY,1971,2005,2016,2014,2005,0,8D,"Non-MSA counties under 10,000",L,N,N,0,0,0,7119,KYKSP0600,State Police: Dry Ridge,,,,41035,38.337132,-84.025554
6808,KY056SP00,KY056SP00,State Police: Jefferson County,State Police: Jefferson County,4,State Police,,,,,21,KY,1061,Jefferson,21111,A,23369,KYUCR0001,Kentucky State Police Criminal Identification and Records Branch,KY,1971,2005,2016,2014,2005,0,9D,"MSA counties under 10,000",L,Y,N,0,0,0,7117,KYKSP0400,State Police: Elizabethtown,,,,42702,38.189533,-85.657624
6826,KY0590800,KY0590800,South Fort Mitchell Police Department,South Fort Mitchell,1,City,,,3614,Independence,21,KY,1064,Kenton,21117,A,23369,KYUCR0001,Kentucky State Police Criminal Identification and Records Branch,KY,1960,,2016,2014,2006,0,7,"Cities under 2,500",L,Y,N,0,0,0,6823,KY0590500,Kenton County Police Department,1971,,,41051,38.930477,-84.533492
6611,KY022SP00,KY022SP00,State Police: Carter County,State Police: Carter County,4,State Police,,,,,21,KY,1027,Carter,21043,A,23369,KYUCR0001,Kentucky State Police Criminal Identification and Records Branch,KY,1971,2005,2016,2014,2005,0,8D,"Non-MSA counties under 10,000",L,N,N,0,0,0,7127,KYKSP1400,State Police: Ashland,,,,41102,38.309555,-83.048821
6788,KY0561500,KY0561500,University of Louisville,University of Louisville,3,University or College,,745,,,21,KY,1061,Jefferson,21111,A,23369,KYUCR0001,Kentucky State Police Criminal Identification and Records Branch,KY,1975,,2016,2013,2016,0,7,"Cities under 2,500",L,Y,N,12,12,10,,,,2015,44,13,40208,38.189533,-85.657624
7034,KY1030000,KY1030000,Rowan County Sheriff's Office,Rowan,2,County,,,,,21,KY,1108,Rowan,21205,A,23369,KYUCR0001,Kentucky State Police Criminal Identification and Records Branch,KY,1960,,2016,2013,2016,16697,8C,"Non-MSA counties from 10,000 thru 24,999",L,N,N,12,12,9,,,,2016,11,2,40351,38.205852,-83.425949
6572,KY0151000,KY0151000,Bullitt County Constable District 3,Bullitt County Constable District 3,5,Other,,,,,21,KY,1020,Bullitt,21029,A,23369,KYUCR0001,Kentucky State Police Criminal Identification and Records Branch,KY,1993,,2016,,2015,0,9D,"MSA counties under 10,000",L,Y,N,0,0,0,6564,KY0150000,Bullitt,1997,1,0,40165,37.969572,-85.703036
6951,KY0860000,KY0860000,Monroe County Sheriff's Office,Monroe,2,County,,,,,21,KY,1091,Monroe,21171,A,23369,KYUCR0001,Kentucky State Police Criminal Identification and Records Branch,KY,1960,,2016,2013,2016,7765,8D,"Non-MSA counties under 10,000",L,N,N,12,12,6,,,,2015,3,1,42167,36.714077,-85.713508
6566,KY0150200,KY0150200,Lebanon Junction Police Department,Lebanon Junction,1,City,,,3628,Lebanon Junction,21,KY,1020,Bullitt,21029,A,23369,KYUCR0001,Kentucky State Police Criminal Identification and Records Branch,KY,1970,,2016,2013,2016,1919,7,"Cities under 2,500",L,Y,N,12,12,9,,,,2014,5,0,40150,37.969572,-85.703036
6975,KY0910000,KY0910000,Nicholas County Sheriff's Office,Nicholas,2,County,,,,,21,KY,1096,Nicholas,21181,A,23369,KYUCR0001,Kentucky State Police Criminal Identification and Records Branch,KY,1960,,2016,2013,2016,5025,8D,"Non-MSA counties under 10,000",L,N,N,12,12,8,,,,2014,1,1,40311,38.337132,-84.025554
6964,KY0890100,KY0890100,Greenville Police Department,Greenville,1,City,,,3596,Greenville,21,KY,1094,Muhlenberg,21177,A,23369,KYUCR0001,Kentucky State Police Criminal Identification and Records Branch,KY,1960,,2016,2013,2016,4382,6,"Cities from 2,500 thru 9,999",L,N,N,12,12,10,,,,2015,9,0,42345,37.213816,-87.134092
6908,KY0750200,KY0750200,Livermore Police Department,Livermore,1,City,,,3634,Livermore,21,KY,1086,Mclean,21149,A,23369,KYUCR0001,Kentucky State Police Criminal Identification and Records Branch,KY,1970,,2016,2014,2008,1349,7,"Cities under 2,500",L,Y,N,0,12,0,6906,KY0750000,McLean,2005,2,0,42352,37.530575,-87.262931
7042,KY1050000,KY1050000,Scott County Sheriff's Office,Scott,2,County,,,,,21,KY,1110,Scott,21209,A,23369,KYUCR0001,Kentucky State Police Criminal Identification and Records Branch,KY,1960,,2016,2013,2016,18924,9C,"MSA counties from 10,000 thru 24,999",L,Y,N,12,12,10,,,,2015,33,2,40324,38.289882,-84.579376
7086,KY1140500,KY1140500,Warren County Drug Task Force,Warren County Drug Task Force,5,Other,,,,,21,KY,1119,Warren,21227,A,23369,KYUCR0001,Kentucky State Police Criminal Identification and Records Branch,KY,2007,,2016,,2015,0,9D,"MSA counties under 10,000",L,Y,N,0,12,0,7082,KY1140000,Warren,2014,1,1,,,
6979,KY0920000,KY0920000,Ohio County Sheriff's Office,Ohio,2,County,,,,,21,KY,1097,Ohio,21183,A,23369,KYUCR0001,Kentucky State Police Criminal Identification and Records Branch,KY,1960,,2016,2013,2016,17293,8C,"Non-MSA counties from 10,000 thru 24,999",L,N,N,12,12,10,,,,2015,17,9,42347,37.477859,-86.844871
